{"updateDate":"2024/03/21 02:50","stores":[{"name":"コーチャンフォー新川通り店","post":"〒001-0923","address":"北海道札幌市北区新川三条１８丁目１－１","tel":"011-769-4000","mapUrl":"https://maps.google.co.jp/maps?q=%e3%82%b3%e3%83%bc%e3%83%81%e3%83%a3%e3%83%b3%e3%83%95%e3%82%a9%e3%83%bc%e6%96%b0%e5%b7%9d%e9%80%9a%e3%82%8a%e5%ba%97","storeUrl":"https://www.coachandfour.ne.jp/","position":{"lat":43.11506249999998,"long":141.29168750000002}},{"name":"コーチャンフォー美しが丘店","post":"〒004-0811","address":"北海道札幌市清田区美しが丘一条５丁目２－１","tel":"011-889-2000","mapUrl":"https://maps.google.co.jp/maps?q=%e3%82%b3%e3%83%bc%e3%83%81%e3%83%a3%e3%83%b3%e3%83%95%e3%82%a9%e3%83%bc%e7%be%8e%e3%81%97%e3%81%8c%e4%b8%98%e5%ba%97","storeUrl":"https://www.coachandfour.ne.jp/","position":{"lat":42.98393749999998,"long":141.4573125}},{"name":"丸善キャンパスショップHIT店","post":"〒006-8585","address":"北海道札幌市手稲区前田七条１５－４－１ 北海道工業大学図書館１Ｆ","tel":"011-688-0017","mapUrl":"https://maps.google.co.jp/maps?q=%e4%b8%b8%e5%96%84%e3%82%ad%e3%83%a3%e3%83%b3%e3%83%91%e3%82%b9%e3%82%b7%e3%83%a7%e3%83%83%e3%83%97HIT%e5%ba%97","storeUrl":"https://yushodo.maruzen.co.jp/","position":{"lat":43.1334375,"long":141.24843750000002}},{"name":"蔦屋書店函館店","post":"〒041-0802","address":"北海道函館市石川町８５－１","tel":"0138-47-3771","mapUrl":"https://maps.google.co.jp/maps?q=%e8%94%a6%e5%b1%8b%e6%9b%b8%e5%ba%97%e5%87%bd%e9%a4%a8%e5%ba%97","storeUrl":"http://store-tsutaya.tsite.jp/storelocator/detail/0270.html","position":{"lat":41.830687500000025,"long":140.73568750000004}},{"name":"三省堂書店札幌店","post":"〒060-0005","address":"北海道札幌市中央区北五条西２－５ ＪＲタワー札幌ステラプレイス５Ｆ","tel":"011-209-5600","mapUrl":"https://maps.google.co.jp/maps?q=%e4%b8%89%e7%9c%81%e5%a0%82%e6%9b%b8%e5%ba%97%e6%9c%ad%e5%b9%8c%e5%ba%97","storeUrl":"https://www.books-sanseido.co.jp/","position":{"lat":43.06793750000001,"long":141.35256250000003}},{"name":"紀伊國屋書店札幌本店","post":"〒060-0005","address":"北海道札幌市中央区北五条西５－７ ｓａｐｐｏｒｏ５５","tel":"011-231-2131","mapUrl":"https://maps.google.co.jp/maps?q=%e7%b4%80%e4%bc%8a%e5%9c%8b%e5%b1%8b%e6%9b%b8%e5%ba%97%e6%9c%ad%e5%b9%8c%e6%9c%ac%e5%ba%97","storeUrl":"https://www.kinokuniya.co.jp/","position":{"lat":43.0673125,"long":141.34831250000002}},{"name":"MARUZEN＆ジュンク堂書店札幌店","post":"〒060-0061","address":"北海道札幌市中央区南一条西１－８－２ 丸井今井南館内","tel":"011-223-1911","mapUrl":"https://maps.google.co.jp/maps?q=MARUZEN%ef%bc%86%e3%82%b8%e3%83%a5%e3%83%b3%e3%82%af%e5%a0%82%e6%9b%b8%e5%ba%97%e6%9c%ad%e5%b9%8c%e5%ba%97","storeUrl":"http://honto.jp/store/detail_1570046_14HB320.html","position":{"lat":43.0600625,"long":141.35231250000004}},{"name":"コーチャンフォーミュンヘン大橋店","post":"〒062-0921","address":"北海道札幌市豊平区中の島一条１３－１－１","tel":"011-817-4000","mapUrl":"https://maps.google.co.jp/maps?q=%e3%82%b3%e3%83%bc%e3%83%81%e3%83%a3%e3%83%b3%e3%83%95%e3%82%a9%e3%83%bc%e3%83%9f%e3%83%a5%e3%83%b3%e3%83%98%e3%83%b3%e5%a4%a7%e6%a9%8b%e5%ba%97","storeUrl":"https://www.coachandfour.ne.jp/","position":{"lat":43.017437499999986,"long":141.35593750000004}},{"name":"江別蔦屋書店","post":"〒067-0005","address":"北海道江別市牧場町１４－１","tel":"011-375-6688","mapUrl":"https://maps.google.co.jp/maps?q=%e6%b1%9f%e5%88%a5%e8%94%a6%e5%b1%8b%e6%9b%b8%e5%ba%97","storeUrl":"https://ebetsu-t.com/","position":{"lat":43.11343749999999,"long":141.53906250000006}},{"name":"ジュンク堂書店旭川店","post":"〒070-0040","address":"北海道旭川市１条通８丁目１０８番地 フィール旭川１－５Ｆ","tel":"0166-26-1120","mapUrl":"https://maps.google.co.jp/maps?q=%e3%82%b8%e3%83%a5%e3%83%b3%e3%82%af%e5%a0%82%e6%9b%b8%e5%ba%97%e6%97%ad%e5%b7%9d%e5%ba%97","storeUrl":"http://honto.jp/store/detail_1570068_14HB320.html","position":{"lat":43.76593749999999,"long":142.35981250000003}},{"name":"コーチャンフォー旭川店","post":"〒078-8391","address":"北海道旭川市宮前１条２丁目４番１号","tel":"0166-76-4000","mapUrl":"https://maps.google.co.jp/maps?q=%e3%82%b3%e3%83%bc%e3%83%81%e3%83%a3%e3%83%b3%e3%83%95%e3%82%a9%e3%83%bc%e6%97%ad%e5%b7%9d%e5%ba%97","storeUrl":"https://www.coachandfour.ne.jp/","position":{"lat":43.75868749999999,"long":142.36818750000003}},{"name":"コーチャンフォー釧路店","post":"〒085-0813","address":"北海道釧路市春採７－１－２４","tel":"0154-46-7777","mapUrl":"https://maps.google.co.jp/maps?q=%e3%82%b3%e3%83%bc%e3%83%81%e3%83%a3%e3%83%b3%e3%83%95%e3%82%a9%e3%83%bc%e9%87%a7%e8%b7%af%e5%ba%97","storeUrl":"https://www.coachandfour.ne.jp/","position":{"lat":42.9771875,"long":144.4138125}},{"name":"コーチャンフォー北見店","post":"〒090-0012","address":"北海道北見市並木町５２３","tel":"0157-26-1122","mapUrl":"https://maps.google.co.jp/maps?q=%e3%82%b3%e3%83%bc%e3%83%81%e3%83%a3%e3%83%b3%e3%83%95%e3%82%a9%e3%83%bc%e5%8c%97%e8%a6%8b%e5%ba%97","storeUrl":"https://www.coachandfour.ne.jp/","position":{"lat":43.82618750000002,"long":143.91593749999998}},{"name":"ブックスモア青森中央店","post":"〒030-0843","address":"青森県青森市大字浜田玉川２４６－１","tel":"017-718-7839","mapUrl":"https://maps.google.co.jp/maps?q=%e3%83%96%e3%83%83%e3%82%af%e3%82%b9%e3%83%a2%e3%82%a2%e9%9d%92%e6%a3%ae%e4%b8%ad%e5%a4%ae%e5%ba%97","storeUrl":"https://honto.jp/store/detail_1570215_14HB480.html","position":{"lat":40.7958125,"long":140.76131250000003}},{"name":"ジュンク堂書店弘前中三店","post":"〒036-8182","address":"青森県弘前市土手町４９－１ 中三百貨店弘前店６Ｆ・７Ｆ","tel":"0172-34-3131","mapUrl":"https://maps.google.co.jp/maps?q=%e3%82%b8%e3%83%a5%e3%83%b3%e3%82%af%e5%a0%82%e6%9b%b8%e5%ba%97%e5%bc%98%e5%89%8d%e4%b8%ad%e4%b8%89%e5%ba%97","storeUrl":"http://honto.jp/store/detail_1570101_14HB320.html","position":{"lat":40.601937500000005,"long":140.4726875}},{"name":"伊吉書院西店","post":"〒039-1161","address":"青森県八戸市河原木字神才６－１","tel":"0178-28-8211","mapUrl":"https://maps.google.co.jp/maps?q=%e4%bc%8a%e5%90%89%e6%9b%b8%e9%99%a2%e8%a5%bf%e5%ba%97","storeUrl":"https://www.ikichi.co.jp/","position":{"lat":40.52568750000002,"long":141.4516875}},{"name":"ジュンク堂書店盛岡店","post":"〒020-0022","address":"岩手県盛岡市大通２－８－１４ ＭＯＳＳビル３Ｆ・４Ｆ","tel":"019-601-6161","mapUrl":"https://maps.google.co.jp/maps?q=%e3%82%b8%e3%83%a5%e3%83%b3%e3%82%af%e5%a0%82%e6%9b%b8%e5%ba%97%e7%9b%9b%e5%b2%a1%e5%ba%97","storeUrl":"http://honto.jp/store/detail_1570037_14HB320.html","position":{"lat":39.702562499999985,"long":141.14481250000006}},{"name":"エムズエクスポ盛岡店","post":"〒020-0122","address":"岩手県盛岡市みたけ３－３６－１","tel":"019-648-7100","mapUrl":"https://maps.google.co.jp/maps?q=%e3%82%a8%e3%83%a0%e3%82%ba%e3%82%a8%e3%82%af%e3%82%b9%e3%83%9d%e7%9b%9b%e5%b2%a1%e5%ba%97","storeUrl":"https://www.emuz.jp/","position":{"lat":39.74068749999999,"long":141.1174375}},{"name":"蔦屋書店盛岡店","post":"〒020-0866","address":"岩手県盛岡市本宮４－４０－２０","tel":"019-656-4747","mapUrl":"https://maps.google.co.jp/maps?q=%e8%94%a6%e5%b1%8b%e6%9b%b8%e5%ba%97%e7%9b%9b%e5%b2%a1%e5%ba%97","storeUrl":"https://www.topculture.co.jp/","position":{"lat":39.6863125,"long":141.1275625}},{"name":"丸善仙台アエル店","post":"〒980-6101","address":"宮城県仙台市青葉区中央１丁目３－１ ＡＥＲ１Ｆ","tel":"022-264-0151","mapUrl":"https://maps.google.co.jp/maps?q=%e4%b8%b8%e5%96%84%e4%bb%99%e5%8f%b0%e3%82%a2%e3%82%a8%e3%83%ab%e5%ba%97","storeUrl":"http://honto.jp/store/detail_1577780_14HB310.html","position":{"lat":38.262687499999984,"long":140.88131250000004}},{"name":"ヤマト屋書店仙台三越店","post":"〒980-8543","address":"宮城県仙台市青葉区一番町４－８－１５ 仙台三越定禅寺通り館Ｂ２Ｆ","tel":"022-393-8541","mapUrl":"https://maps.google.co.jp/maps?q=%e3%83%a4%e3%83%9e%e3%83%88%e5%b1%8b%e6%9b%b8%e5%ba%97%e4%bb%99%e5%8f%b0%e4%b8%89%e8%b6%8a%e5%ba%97","storeUrl":"http://booksyamatoya.co.jp/mitsukoshi/","position":{"lat":38.26518749999998,"long":140.87118750000002}},{"name":"ヤマト屋書店長命ヶ丘店","post":"〒981-3212","address":"宮城県仙台市泉区長命ヶ丘２－２１－１ ＢＲＡＮＣＨ仙台内","tel":"022-342-0611","mapUrl":"https://maps.google.co.jp/maps?q=%e3%83%a4%e3%83%9e%e3%83%88%e5%b1%8b%e6%9b%b8%e5%ba%97%e9%95%b7%e5%91%bd%e3%83%b6%e4%b8%98%e5%ba%97","storeUrl":"http://booksyamatoya.co.jp","position":{"lat":38.3100625,"long":140.84606250000002}},{"name":"ジュンク堂書店秋田店","post":"〒010-0874","address":"秋田県秋田市千秋久保田町４－２ 秋田オーパ６Ｆ","tel":"018-884-1370","mapUrl":"https://maps.google.co.jp/maps?q=%e3%82%b8%e3%83%a5%e3%83%b3%e3%82%af%e5%a0%82%e6%9b%b8%e5%ba%97%e7%a7%8b%e7%94%b0%e5%ba%97","storeUrl":"https://honto.jp/store/detail_1570039_14HB320.html","position":{"lat":39.717812499999994,"long":140.12818750000002}},{"name":"紀尚堂日大売店","post":"〒963-1165","address":"福島県郡山市田村町徳定字中河原１ 日大工学部厚生センター内","tel":"024-943-0291","mapUrl":"https://maps.google.co.jp/maps?q=%e7%b4%80%e5%b0%9a%e5%a0%82%e6%97%a5%e5%a4%a7%e5%a3%b2%e5%ba%97","storeUrl":"","position":{"lat":37.35981249999999,"long":140.38356250000004}},{"name":"ジュンク堂書店郡山店","post":"〒963-8004","address":"福島県郡山市中町１３－１ うすい百貨店９Ｆ","tel":"024-927-0440","mapUrl":"https://maps.google.co.jp/maps?q=%e3%82%b8%e3%83%a5%e3%83%b3%e3%82%af%e5%a0%82%e6%9b%b8%e5%ba%97%e9%83%a1%e5%b1%b1%e5%ba%97","storeUrl":"http://honto.jp/store/detail_1570064_14HB320.html","position":{"lat":37.39643749999999,"long":140.38431250000008}},{"name":"みどり書房桑野店","post":"〒963-8032","address":"福島県郡山市下亀田１６－１６","tel":"024-939-0047","mapUrl":"https://maps.google.co.jp/maps?q=%e3%81%bf%e3%81%a9%e3%82%8a%e6%9b%b8%e6%88%bf%e6%a1%91%e9%87%8e%e5%ba%97","storeUrl":"https://store-tsutaya.tsite.jp/store/detail?storeId=0908#store_base","position":{"lat":37.407687499999994,"long":140.34906250000006}},{"name":"岩瀬書店富久山店","post":"〒963-8051","address":"福島県郡山市富久山町八山田字大森新田３６－１","tel":"024-936-2220","mapUrl":"https://maps.google.co.jp/maps?q=%e5%b2%a9%e7%80%ac%e6%9b%b8%e5%ba%97%e5%af%8c%e4%b9%85%e5%b1%b1%e5%ba%97","storeUrl":"https://www.iwasebooks.co.jp/","position":{"lat":37.4320625,"long":140.38281250000006}},{"name":"会津大学ブックセンター","post":"〒965-8580","address":"福島県会津若松市一箕町鶴賀字上居合９０","tel":"0242-33-0773","mapUrl":"https://maps.google.co.jp/maps?q=%e4%bc%9a%e6%b4%a5%e5%a4%a7%e5%ad%a6%e3%83%96%e3%83%83%e3%82%af%e3%82%bb%e3%83%b3%e3%82%bf%e3%83%bc","storeUrl":"","position":{"lat":37.52256249999999,"long":139.9380625}},{"name":"未来屋書店土浦店","post":"〒300-0811","address":"茨城県土浦市上高津３６７ イオンモール土浦３Ｆ","tel":"029-826-8582","mapUrl":"https://maps.google.co.jp/maps?q=%e6%9c%aa%e6%9d%a5%e5%b1%8b%e6%9b%b8%e5%ba%97%e5%9c%9f%e6%b5%a6%e5%ba%97","storeUrl":"https://www.miraiyashoten.co.jp/store/","position":{"lat":36.0800625,"long":140.18081249999994}},{"name":"丸善筑波支店大学会館売店","post":"〒305-0006","address":"茨城県つくば市天王台１－１－１","tel":"029-858-0409","mapUrl":"https://maps.google.co.jp/maps?q=%e4%b8%b8%e5%96%84%e7%ad%91%e6%b3%a2%e6%94%af%e5%ba%97%e5%a4%a7%e5%ad%a6%e4%bc%9a%e9%a4%a8%e5%a3%b2%e5%ba%97","storeUrl":"https://yushodo.maruzen.co.jp/","position":{"lat":36.10893749999998,"long":140.09968750000002}},{"name":"丸善筑波支店第二学群書籍部","post":"〒305-0006","address":"茨城県つくば市天王台１－１－１ 筑波大学内２Ｂ棟２Ｆ","tel":"029-858-0421","mapUrl":"https://maps.google.co.jp/maps?q=%e4%b8%b8%e5%96%84%e7%ad%91%e6%b3%a2%e6%94%af%e5%ba%97%e7%ac%ac%e4%ba%8c%e5%ad%a6%e7%be%a4%e6%9b%b8%e7%b1%8d%e9%83%a8","storeUrl":"https://yushodo.maruzen.co.jp/","position":{"lat":36.1110625,"long":140.10131250000006}},{"name":"TSUTAYA デイズタウンつくば店","post":"〒305-0032","address":"茨城県つくば市竹園１丁目９－２","tel":"029-846-4920","mapUrl":"https://maps.google.co.jp/maps?q=TSUTAYA+%e3%83%87%e3%82%a4%e3%82%ba%e3%82%bf%e3%82%a6%e3%83%b3%e3%81%a4%e3%81%8f%e3%81%b0%e5%ba%97","storeUrl":"","position":{"lat":36.077937500000004,"long":140.11481250000003}},{"name":"コーチャンフォーつくば店","post":"〒305-0816","address":"茨城県つくば市学園の森３丁目５０－７","tel":"029-893-2001","mapUrl":"https://maps.google.co.jp/maps?q=%e3%82%b3%e3%83%bc%e3%83%81%e3%83%a3%e3%83%b3%e3%83%95%e3%82%a9%e3%83%bc%e3%81%a4%e3%81%8f%e3%81%b0%e5%ba%97","storeUrl":"https://www.coachandfour.ne.jp/","position":{"lat":36.10081249999999,"long":140.08368750000005}},{"name":"アカデミアイーアスつくば店","post":"〒305-0817","address":"茨城県つくば市研究学園５－１９ イーアスつくば３Ｆ","tel":"029-868-7407","mapUrl":"https://maps.google.co.jp/maps?q=%e3%82%a2%e3%82%ab%e3%83%87%e3%83%9f%e3%82%a2%e3%82%a4%e3%83%bc%e3%82%a2%e3%82%b9%e3%81%a4%e3%81%8f%e3%81%b0%e5%ba%97","storeUrl":"https://www.kumabook.com/","position":{"lat":36.0854375,"long":140.08393750000005}},{"name":"蔦屋書店ひたちなか店","post":"〒312-0005","address":"茨城県ひたちなか市新光町３０－４","tel":"029-265-2300","mapUrl":"https://maps.google.co.jp/maps?q=%e8%94%a6%e5%b1%8b%e6%9b%b8%e5%ba%97%e3%81%b2%e3%81%9f%e3%81%a1%e3%81%aa%e3%81%8b%e5%ba%97","storeUrl":"https://www.topculture.co.jp/","position":{"lat":36.4073125,"long":140.58431250000007}},{"name":"未来屋書店水戸内原店","post":"〒319-0305","address":"茨城県水戸市中原町字西１３５ イオンモール水戸内原店２Ｆ","tel":"029-259-9151","mapUrl":"https://maps.google.co.jp/maps?q=%e6%9c%aa%e6%9d%a5%e5%b1%8b%e6%9b%b8%e5%ba%97%e6%b0%b4%e6%88%b8%e5%86%85%e5%8e%9f%e5%ba%97","storeUrl":"https://www.miraiyashoten.co.jp/store/","position":{"lat":36.37456249999998,"long":140.3594375}},{"name":"喜久屋書店宇都宮店","post":"〒320-0026","address":"栃木県宇都宮市馬場通り２－３－１２ ＭＥＧＡドンキ・ラパーク宇都宮店５階・６階","tel":"028-614-5222","mapUrl":"https://maps.google.co.jp/maps?q=%e5%96%9c%e4%b9%85%e5%b1%8b%e6%9b%b8%e5%ba%97%e5%ae%87%e9%83%bd%e5%ae%ae%e5%ba%97","storeUrl":"https://www.blg.co.jp/kikuya/","position":{"lat":36.5608125,"long":139.88531250000005}},{"name":"落合書店宝木店","post":"〒320-0061","address":"栃木県宇都宮市宝木町１－３－１３５","tel":"028-650-2211","mapUrl":"https://maps.google.co.jp/maps?q=%e8%90%bd%e5%90%88%e6%9b%b8%e5%ba%97%e5%ae%9d%e6%9c%a8%e5%ba%97","storeUrl":"http://www.ochiai-bc.co.jp/","position":{"lat":36.574687499999996,"long":139.85543750000005}},{"name":"落合書店イトーヨーカドー店","post":"〒321-0904","address":"栃木県宇都宮市陽東６－２－１ イトーヨーカドー２Ｆ","tel":"028-613-1313","mapUrl":"https://maps.google.co.jp/maps?q=%e8%90%bd%e5%90%88%e6%9b%b8%e5%ba%97%e3%82%a4%e3%83%88%e3%83%bc%e3%83%a8%e3%83%bc%e3%82%ab%e3%83%89%e3%83%bc%e5%ba%97","storeUrl":"http://www.ochiai-bc.co.jp/","position":{"lat":36.55506249999999,"long":139.92818749999998}},{"name":"ブックマンズアカデミー高崎店","post":"〒370-0069","address":"群馬県高崎市飯塚町１１５０－５ ウニクス高崎２Ｆ","tel":"027-370-6166","mapUrl":"https://maps.google.co.jp/maps?q=%e3%83%96%e3%83%83%e3%82%af%e3%83%9e%e3%83%b3%e3%82%ba%e3%82%a2%e3%82%ab%e3%83%87%e3%83%9f%e3%83%bc%e9%ab%98%e5%b4%8e%e5%ba%97","storeUrl":"https://www.bunshindo.co.jp/","position":{"lat":36.339562499999985,"long":139.00768750000003}},{"name":"戸田書店高崎店","post":"〒370-0074","address":"群馬県高崎市下小鳥町４３８－１","tel":"027-363-5110","mapUrl":"https://maps.google.co.jp/maps?q=%e6%88%b8%e7%94%b0%e6%9b%b8%e5%ba%97%e9%ab%98%e5%b4%8e%e5%ba%97","storeUrl":"http://www.todabooks.co.jp/","position":{"lat":36.352812499999985,"long":138.9996875}},{"name":"未来屋書店高崎店","post":"〒370-3521","address":"群馬県高崎市棟高町１４００ イオンモール高崎２Ｆ","tel":"027-372-7344","mapUrl":"https://maps.google.co.jp/maps?q=%e6%9c%aa%e6%9d%a5%e5%b1%8b%e6%9b%b8%e5%ba%97%e9%ab%98%e5%b4%8e%e5%ba%97","storeUrl":"https://www.miraiyashoten.co.jp/store/","position":{"lat":36.3906875,"long":139.00681250000002}},{"name":"紀伊國屋書店前橋店","post":"〒371-0801","address":"群馬県前橋市文京町２－１－１ けやきウォーク前橋１Ｆ","tel":"027-220-1830","mapUrl":"https://maps.google.co.jp/maps?q=%e7%b4%80%e4%bc%8a%e5%9c%8b%e5%b1%8b%e6%9b%b8%e5%ba%97%e5%89%8d%e6%a9%8b%e5%ba%97","storeUrl":"https://www.kinokuniya.co.jp/","position":{"lat":36.3791875,"long":139.0780625}},{"name":"ブックマンズアカデミー前橋店","post":"〒371-0854","address":"群馬県前橋市大渡町２－３－１","tel":"027-280-3322","mapUrl":"https://maps.google.co.jp/maps?q=%e3%83%96%e3%83%83%e3%82%af%e3%83%9e%e3%83%b3%e3%82%ba%e3%82%a2%e3%82%ab%e3%83%87%e3%83%9f%e3%83%bc%e5%89%8d%e6%a9%8b%e5%ba%97","storeUrl":"https://www.bunshindo.co.jp/","position":{"lat":36.3960625,"long":139.04268750000006}},{"name":"喜久屋書店太田店","post":"〒373-0808","address":"群馬県太田市石原町８１ イオンモール太田２Ｆ","tel":"0276-47-8723","mapUrl":"https://maps.google.co.jp/maps?q=%e5%96%9c%e4%b9%85%e5%b1%8b%e6%9b%b8%e5%ba%97%e5%a4%aa%e7%94%b0%e5%ba%97","storeUrl":"https://www.blg.co.jp/kikuya/","position":{"lat":36.294062499999995,"long":139.40056249999998}},{"name":"ブックマンズアカデミー太田店","post":"〒373-0852","address":"群馬県太田市新井町５０２－２","tel":"0276-40-1900","mapUrl":"https://maps.google.co.jp/maps?q=%e3%83%96%e3%83%83%e3%82%af%e3%83%9e%e3%83%b3%e3%82%ba%e3%82%a2%e3%82%ab%e3%83%87%e3%83%9f%e3%83%bc%e5%a4%aa%e7%94%b0%e5%ba%97","storeUrl":"https://www.bunshindo.co.jp/","position":{"lat":36.28531249999999,"long":139.3735625}},{"name":"蔦屋書店前橋みなみモール店","post":"〒379-2143","address":"群馬県前橋市新堀町９４０番 パワーモール前橋南","tel":"027-210-0886","mapUrl":"https://maps.google.co.jp/maps?q=%e8%94%a6%e5%b1%8b%e6%9b%b8%e5%ba%97%e5%89%8d%e6%a9%8b%e3%81%bf%e3%81%aa%e3%81%bf%e3%83%a2%e3%83%bc%e3%83%ab%e5%ba%97","storeUrl":"https://www.topculture.co.jp/","position":{"lat":36.3300625,"long":139.09568750000005}},{"name":"丸善スマーク伊勢崎店","post":"〒379-2224","address":"群馬県伊勢崎市西小保方町３６８ スマーク伊勢崎２Ｆ","tel":"0270-75-4590","mapUrl":"https://maps.google.co.jp/maps?q=%e4%b8%b8%e5%96%84%e3%82%b9%e3%83%9e%e3%83%bc%e3%82%af%e4%bc%8a%e5%8b%a2%e5%b4%8e%e5%ba%97","storeUrl":"https://honto.jp/store/detail_1570247_14HB320.html","position":{"lat":36.33931249999999,"long":139.23218749999995}},{"name":"紀伊國屋書店浦和店","post":"〒330-0055","address":"埼玉県さいたま市浦和区東高砂町１１－１ 浦和パルコ５Ｆ","tel":"048-871-2760","mapUrl":"https://maps.google.co.jp/maps?q=%e7%b4%80%e4%bc%8a%e5%9c%8b%e5%b1%8b%e6%9b%b8%e5%ba%97%e6%b5%a6%e5%92%8c%e5%ba%97","storeUrl":"https://www.kinokuniya.co.jp/","position":{"lat":35.85868749999999,"long":139.65918749999997}},{"name":"須原屋本店","post":"〒330-0062","address":"埼玉県さいたま市浦和区仲町２－３－２０","tel":"048-822-5321","mapUrl":"https://maps.google.co.jp/maps?q=%e9%a0%88%e5%8e%9f%e5%b1%8b%e6%9c%ac%e5%ba%97","storeUrl":"https://www.suharaya.co.jp/information/?id=1","position":{"lat":35.8600625,"long":139.65306249999998}},{"name":"ジュンク堂書店大宮高島屋店","post":"〒330-8511","address":"埼玉県さいたま市大宮区大門町１－３２ 大宮高島屋７Ｆ","tel":"048-640-3111","mapUrl":"https://maps.google.co.jp/maps?q=%e3%82%b8%e3%83%a5%e3%83%b3%e3%82%af%e5%a0%82%e6%9b%b8%e5%ba%97%e5%a4%a7%e5%ae%ae%e9%ab%98%e5%b3%b6%e5%b1%8b%e5%ba%97","storeUrl":"http://honto.jp/store/detail_1570024_14HB320.html","position":{"lat":35.9061875,"long":139.62618750000001}},{"name":"紀伊國屋書店さいたま新都心店","post":"〒330-9559","address":"埼玉県さいたま市大宮区吉敷町４－２６７－２ コクーン新都心１Ｆ","tel":"048-600-0830","mapUrl":"https://maps.google.co.jp/maps?q=%e7%b4%80%e4%bc%8a%e5%9c%8b%e5%b1%8b%e6%9b%b8%e5%ba%97%e3%81%95%e3%81%84%e3%81%9f%e3%81%be%e6%96%b0%e9%83%bd%e5%bf%83%e5%ba%97","storeUrl":"https://www.kinokuniya.co.jp/","position":{"lat":35.8948125,"long":139.63656250000008}},{"name":"文教堂書店川口駅店","post":"〒332-0015","address":"埼玉県川口市川口１－１－１ キュポ・ラ３Ｆ","tel":"048-227-4821","mapUrl":"https://maps.google.co.jp/maps?q=%e6%96%87%e6%95%99%e5%a0%82%e6%9b%b8%e5%ba%97%e5%b7%9d%e5%8f%a3%e9%a7%85%e5%ba%97","storeUrl":"https://www.bunkyodo.co.jp/page-list-store/","position":{"lat":35.80093749999999,"long":139.71856249999996}},{"name":"未来屋書店川口店","post":"〒333-0834","address":"埼玉県川口市安行領根岸３１８０番地 イオンモール川口３Ｆ","tel":"048-287-9670","mapUrl":"https://maps.google.co.jp/maps?q=%e6%9c%aa%e6%9d%a5%e5%b1%8b%e6%9b%b8%e5%ba%97%e5%b7%9d%e5%8f%a3%e5%ba%97","storeUrl":"https://www.miraiyashoten.co.jp/store/","position":{"lat":35.83756249999999,"long":139.7229375}},{"name":"須原屋武蔵浦和店","post":"〒336-0021","address":"埼玉県さいたま市南区別所７－６－８－２０９","tel":"048-872-0550","mapUrl":"https://maps.google.co.jp/maps?q=%e9%a0%88%e5%8e%9f%e5%b1%8b%e6%ad%a6%e8%94%b5%e6%b5%a6%e5%92%8c%e5%ba%97","storeUrl":"https://www.suharaya.co.jp/information/?id=4","position":{"lat":35.8454375,"long":139.64618750000005}},{"name":"ブックデポ書楽","post":"〒338-0001","address":"埼玉県さいたま市中央区上落合２－３－５ アルーサＢ館","tel":"048-859-4946","mapUrl":"https://maps.google.co.jp/maps?q=%e3%83%96%e3%83%83%e3%82%af%e3%83%87%e3%83%9d%e6%9b%b8%e6%a5%bd","storeUrl":"https://www.syoraku.co.jp/","position":{"lat":35.891437499999995,"long":139.6278125}},{"name":"未来屋書店レイクタウン店","post":"〒343-0828","address":"埼玉県越谷市レイクタウン３－１－１ イオンレイクタウンＭＯＲＩ３Ｆ","tel":"048-988-7742","mapUrl":"https://maps.google.co.jp/maps?q=%e6%9c%aa%e6%9d%a5%e5%b1%8b%e6%9b%b8%e5%ba%97%e3%83%ac%e3%82%a4%e3%82%af%e3%82%bf%e3%82%a6%e3%83%b3%e5%ba%97","storeUrl":"https://www.miraiyashoten.co.jp/store/","position":{"lat":35.881187499999996,"long":139.82856249999998}},{"name":"旭屋書店新越谷店","post":"〒343-0845","address":"埼玉県越谷市南越谷１－１１－４ ＶＡＲＩＥ越谷３Ｆ","tel":"048-985-5501","mapUrl":"https://maps.google.co.jp/maps?q=%e6%97%ad%e5%b1%8b%e6%9b%b8%e5%ba%97%e6%96%b0%e8%b6%8a%e8%b0%b7%e5%ba%97","storeUrl":"https://www.asahiya.com/","position":{"lat":35.8755625,"long":139.78981250000004}},{"name":"未来屋書店羽生店","post":"〒348-0039","address":"埼玉県羽生市川崎２－２８１－３ イオンモール羽生２Ｆ","tel":"048-563-3063","mapUrl":"https://maps.google.co.jp/maps?q=%e6%9c%aa%e6%9d%a5%e5%b1%8b%e6%9b%b8%e5%ba%97%e7%be%bd%e7%94%9f%e5%ba%97","storeUrl":"https://www.miraiyashoten.co.jp/store/","position":{"lat":36.142687499999994,"long":139.5421875}},{"name":"錦電サービス","post":"〒350-0311","address":"埼玉県比企郡鳩山町石坂４８６－８１ 東京電機大学鳩山校舎内","tel":"049-296-2962","mapUrl":"https://maps.google.co.jp/maps?q=%e9%8c%a6%e9%9b%bb%e3%82%b5%e3%83%bc%e3%83%93%e3%82%b9","storeUrl":"http://www.kinden-service.co.jp/books.html","position":{"lat":35.9861875,"long":139.3728125}},{"name":"ブックファーストルミネ川越店","post":"〒350-1123","address":"埼玉県川越市脇田本町３９－１９ ルミネ川越店４Ｆ","tel":"049-240-6212","mapUrl":"https://maps.google.co.jp/maps?q=%e3%83%96%e3%83%83%e3%82%af%e3%83%95%e3%82%a1%e3%83%bc%e3%82%b9%e3%83%88%e3%83%ab%e3%83%9f%e3%83%8d%e5%b7%9d%e8%b6%8a%e5%ba%97","storeUrl":"http://www.book1st.net/","position":{"lat":35.907187500000006,"long":139.48268750000005}},{"name":"旭屋書店志木店","post":"〒352-0001","address":"埼玉県新座市東北２－３８－１０ エスティトスカ３Ｆ","tel":"048-487-6165","mapUrl":"https://maps.google.co.jp/maps?q=%e6%97%ad%e5%b1%8b%e6%9b%b8%e5%ba%97%e5%bf%97%e6%9c%a8%e5%ba%97","storeUrl":"https://www.asahiya.com/","position":{"lat":35.82256249999999,"long":139.57518750000003}},{"name":"丸善桶川店","post":"〒363-0022","address":"埼玉県桶川市若宮１丁目５番２号 桶川マイン３Ｆ","tel":"048-789-0011","mapUrl":"https://maps.google.co.jp/maps?q=%e4%b8%b8%e5%96%84%e6%a1%b6%e5%b7%9d%e5%ba%97","storeUrl":"http://honto.jp/store/detail_1570147_14HB310.html","position":{"lat":35.9980625,"long":139.5624375}},{"name":"三省堂書店そごう千葉店","post":"〒260-0028","address":"千葉県千葉市中央区新町１０００ そごう千葉店９Ｆ","tel":"043-245-8331","mapUrl":"https://maps.google.co.jp/maps?q=%e4%b8%89%e7%9c%81%e5%a0%82%e6%9b%b8%e5%ba%97%e3%81%9d%e3%81%94%e3%81%86%e5%8d%83%e8%91%89%e5%ba%97","storeUrl":"https://www.books-sanseido.co.jp/","position":{"lat":35.6113125,"long":140.11368750000003}},{"name":"くまざわ書店ペリエ千葉店","post":"〒260-0031","address":"千葉県千葉市中央区新千葉１－１－１ ペリエ千葉６階","tel":"043-202-2900","mapUrl":"https://maps.google.co.jp/maps?q=%e3%81%8f%e3%81%be%e3%81%96%e3%82%8f%e6%9b%b8%e5%ba%97%e3%83%9a%e3%83%aa%e3%82%a8%e5%8d%83%e8%91%89%e5%ba%97","storeUrl":"https://www.kumabook.com/","position":{"lat":35.6129375,"long":140.1141875}},{"name":"蔦屋書店イオンモール幕張新都心店","post":"〒261-0014","address":"千葉県千葉市美浜区豊砂１－１ イオンモール幕張新都心グランドモール１Ｆ","tel":"043-306-7361","mapUrl":"https://maps.google.co.jp/maps?q=%e8%94%a6%e5%b1%8b%e6%9b%b8%e5%ba%97%e3%82%a4%e3%82%aa%e3%83%b3%e3%83%a2%e3%83%bc%e3%83%ab%e5%b9%95%e5%bc%b5%e6%96%b0%e9%83%bd%e5%bf%83%e5%ba%97","storeUrl":"http://store-tsutaya.tsite.jp/storelocator/detail/1548.html","position":{"lat":35.65168750000001,"long":140.0318125}},{"name":"紀伊國屋書店流山おおたかの森店","post":"〒270-0139","address":"千葉県流山市おおたかの森南１－５－１ 流山おおたかの森ＳＣ本館２Ｆ","tel":"04-7156-6111","mapUrl":"https://maps.google.co.jp/maps?q=%e7%b4%80%e4%bc%8a%e5%9c%8b%e5%b1%8b%e6%9b%b8%e5%ba%97%e6%b5%81%e5%b1%b1%e3%81%8a%e3%81%8a%e3%81%9f%e3%81%8b%e3%81%ae%e6%a3%ae%e5%ba%97","storeUrl":"https://www.kinokuniya.co.jp/","position":{"lat":35.870437499999994,"long":139.92681249999998}},{"name":"喜久屋書店千葉ニュータウン店","post":"〒270-1350","address":"千葉県印西市中央北３－２ イオンモール千葉ニュータウン３Ｆ","tel":"0476-40-7732","mapUrl":"https://maps.google.co.jp/maps?q=%e5%96%9c%e4%b9%85%e5%b1%8b%e6%9b%b8%e5%ba%97%e5%8d%83%e8%91%89%e3%83%8b%e3%83%a5%e3%83%bc%e3%82%bf%e3%82%a6%e3%83%b3%e5%ba%97","storeUrl":"https://www.blg.co.jp/kikuya/","position":{"lat":35.8021875,"long":140.11206250000004}},{"name":"喜久屋書店松戸店","post":"〒271-0092","address":"千葉県松戸市松戸１３０７－１ ＫＩＴＥ　ＭＩＴＥ　ＭＡＴＳＵＤＯ　７Ｆ","tel":"047-393-8066","mapUrl":"https://maps.google.co.jp/maps?q=%e5%96%9c%e4%b9%85%e5%b1%8b%e6%9b%b8%e5%ba%97%e6%9d%be%e6%88%b8%e5%ba%97","storeUrl":"https://www.blg.co.jp/kikuya/","position":{"lat":35.782187500000006,"long":139.89881250000008}},{"name":"有隣堂ニッケコルトンプラザ店","post":"〒272-0015","address":"千葉県市川市鬼高１－１－１ ニッケコルトンプラザ３Ｆ","tel":"047-711-4200","mapUrl":"https://maps.google.co.jp/maps?q=%e6%9c%89%e9%9a%a3%e5%a0%82%e3%83%8b%e3%83%83%e3%82%b1%e3%82%b3%e3%83%ab%e3%83%88%e3%83%b3%e3%83%97%e3%83%a9%e3%82%b6%e5%ba%97","storeUrl":"https://www.yurindo.co.jp/storeguide/","position":{"lat":35.7163125,"long":139.93343750000003}},{"name":"旭屋書店船橋店","post":"〒273-0005","address":"千葉県船橋市本町７－１－１ 船橋東武５Ｆ","tel":"047-424-7331","mapUrl":"https://maps.google.co.jp/maps?q=%e6%97%ad%e5%b1%8b%e6%9b%b8%e5%ba%97%e8%88%b9%e6%a9%8b%e5%ba%97","storeUrl":"https://www.asahiya.com/","position":{"lat":35.7024375,"long":139.9844375}},{"name":"ジュンク堂書店南船橋店","post":"〒273-0012","address":"千葉県船橋市浜町２－２－７ ビビット南船橋１階","tel":"047-401-0330","mapUrl":"https://maps.google.co.jp/maps?q=%e3%82%b8%e3%83%a5%e3%83%b3%e3%82%af%e5%a0%82%e6%9b%b8%e5%ba%97%e5%8d%97%e8%88%b9%e6%a9%8b%e5%ba%97","storeUrl":"http://honto.jp/store/detail_1570159_14HB320.html","position":{"lat":35.687312500000004,"long":139.99318750000003}},{"name":"巖翠堂北習志野店","post":"〒274-0063","address":"千葉県船橋市習志野台７－２５－１６","tel":"047-465-0926","mapUrl":"https://maps.google.co.jp/maps?q=%e5%b7%96%e7%bf%a0%e5%a0%82%e5%8c%97%e7%bf%92%e5%bf%97%e9%87%8e%e5%ba%97","storeUrl":"http://www.gansuidou.co.jp","position":{"lat":35.7229375,"long":140.05618750000002}},{"name":"くまざわ書店津田沼店","post":"〒275-0016","address":"千葉県習志野市津田沼１－１－１ ホテルメッツ津田沼５Ｆ","tel":"047-475-8311","mapUrl":"https://maps.google.co.jp/maps?q=%e3%81%8f%e3%81%be%e3%81%96%e3%82%8f%e6%9b%b8%e5%ba%97%e6%b4%a5%e7%94%b0%e6%b2%bc%e5%ba%97","storeUrl":"https://www.kumabook.com/","position":{"lat":35.69118750000001,"long":140.01993749999997}},{"name":"丸善津田沼店","post":"〒275-0026","address":"千葉県習志野市谷津７－７－１ ブロックＢ棟２Ｆ・３Ｆ","tel":"047-470-8311","mapUrl":"https://maps.google.co.jp/maps?q=%e4%b8%b8%e5%96%84%e6%b4%a5%e7%94%b0%e6%b2%bc%e5%ba%97","storeUrl":"http://honto.jp/store/detail_1574700_14HB310.html","position":{"lat":35.69056250000001,"long":140.0181875}},{"name":"ジュンク堂書店柏モディ店","post":"〒277-0005","address":"千葉県柏市柏１－２－２６ 柏モディ５階","tel":"04-7168-0215","mapUrl":"https://maps.google.co.jp/maps?q=%e3%82%b8%e3%83%a5%e3%83%b3%e3%82%af%e5%a0%82%e6%9b%b8%e5%ba%97%e6%9f%8f%e3%83%a2%e3%83%87%e3%82%a3%e5%ba%97","storeUrl":"https://honto.jp/store/detail_1570164_14HB320.html","position":{"lat":35.8604375,"long":139.9706875}},{"name":"丸善ユニモちはら台店","post":"〒290-0194","address":"千葉県市原市ちはら台西３－４ ｕｎｉｍｏちはら台２Ｆ","tel":"0436-26-7620","mapUrl":"https://maps.google.co.jp/maps?q=%e4%b8%b8%e5%96%84%e3%83%a6%e3%83%8b%e3%83%a2%e3%81%a1%e3%81%af%e3%82%89%e5%8f%b0%e5%ba%97","storeUrl":"https://honto.jp/store/detail_1570241_14HB310.html","position":{"lat":35.52793750000001,"long":140.17168749999996}},{"name":"蔦屋書店茂原店","post":"〒297-0012","address":"千葉県茂原市六ツ野八貫野２７８５－１","tel":"0475-27-2332","mapUrl":"https://maps.google.co.jp/maps?q=%e8%94%a6%e5%b1%8b%e6%9b%b8%e5%ba%97%e8%8c%82%e5%8e%9f%e5%ba%97","storeUrl":"https://store-tsutaya.tsite.jp/storelocator/detail/1682.html","position":{"lat":35.42875000000001,"long":140.33124999999998}},{"name":"三省堂書店有楽町店","post":"〒100-0006","address":"東京都千代田区有楽町２－１０－１ 東京交通会館２Ｆ","tel":"03-5222-1200","mapUrl":"https://maps.google.co.jp/maps?q=%e4%b8%89%e7%9c%81%e5%a0%82%e6%9b%b8%e5%ba%97%e6%9c%89%e6%a5%bd%e7%94%ba%e5%ba%97","storeUrl":"https://www.books-sanseido.co.jp/","position":{"lat":35.6749375,"long":139.76431250000002}},{"name":"丸善丸の内本店","post":"〒100-8203","address":"東京都千代田区丸の内１－６－４ 丸の内ＯＡＺＯ内","tel":"03-5288-8881","mapUrl":"https://maps.google.co.jp/maps?q=%e4%b8%b8%e5%96%84%e4%b8%b8%e3%81%ae%e5%86%85%e6%9c%ac%e5%ba%97","storeUrl":"http://honto.jp/store/detail_1572000_14HB310.html","position":{"lat":35.68356250000001,"long":139.7664375}},{"name":"書泉ブックタワー","post":"〒101-0025","address":"東京都千代田区神田佐久間町１－１１－１","tel":"03-5296-0051","mapUrl":"https://maps.google.co.jp/maps?q=%e6%9b%b8%e6%b3%89%e3%83%96%e3%83%83%e3%82%af%e3%82%bf%e3%83%af%e3%83%bc","storeUrl":"https://www.shosen.co.jp/","position":{"lat":35.69731250000001,"long":139.77518750000002}},{"name":"ヨドバシカメラマルチメディアAKIBA店","post":"〒101-0028","address":"東京都千代田区神田花岡町１－１","tel":"03-5209-1010","mapUrl":"https://maps.google.co.jp/maps?q=%e3%83%a8%e3%83%89%e3%83%90%e3%82%b7%e3%82%ab%e3%83%a1%e3%83%a9%e3%83%9e%e3%83%ab%e3%83%81%e3%83%a1%e3%83%87%e3%82%a3%e3%82%a2AKIBA%e5%ba%97","storeUrl":"https://www.yodobashi.com/","position":{"lat":35.6989375,"long":139.77468749999997}},{"name":"書泉グランデ","post":"〒101-0051","address":"東京都千代田区神田神保町１－３－２","tel":"03-3295-0011","mapUrl":"https://maps.google.co.jp/maps?q=%e6%9b%b8%e6%b3%89%e3%82%b0%e3%83%a9%e3%83%b3%e3%83%87","storeUrl":"https://www.shosen.co.jp/","position":{"lat":35.6958125,"long":139.75993749999998}},{"name":"三省堂書店神保町本店仮店舗","post":"〒101-0052","address":"東京都千代田区神田小川町２－５","tel":"03-3233-3312","mapUrl":"https://maps.google.co.jp/maps?q=%e4%b8%89%e7%9c%81%e5%a0%82%e6%9b%b8%e5%ba%97%e7%a5%9e%e4%bf%9d%e7%94%ba%e6%9c%ac%e5%ba%97%e4%bb%ae%e5%ba%97%e8%88%97","storeUrl":"https://www.books-sanseido.co.jp/","position":{"lat":35.69418750000001,"long":139.7634375}},{"name":"丸善お茶の水店","post":"〒101-0062","address":"東京都千代田区神田駿河台２－８ 瀬川ビル１Ｆ","tel":"03-3295-5581","mapUrl":"https://maps.google.co.jp/maps?q=%e4%b8%b8%e5%96%84%e3%81%8a%e8%8c%b6%e3%81%ae%e6%b0%b4%e5%ba%97","storeUrl":"http://honto.jp/store/detail_1571100_14HB310.html","position":{"lat":35.699312500000005,"long":139.76431250000002}},{"name":"文教堂書店市ヶ谷店","post":"〒102-0076","address":"東京都千代田区五番町３－１ 五番町グランドビル１Ｆ","tel":"03-3556-0632","mapUrl":"https://maps.google.co.jp/maps?q=%e6%96%87%e6%95%99%e5%a0%82%e6%9b%b8%e5%ba%97%e5%b8%82%e3%83%b6%e8%b0%b7%e5%ba%97","storeUrl":"https://www.bunkyodo.co.jp/page-list-store/","position":{"lat":35.690437500000016,"long":139.73593750000003}},{"name":"丸善日本橋店","post":"〒103-8245","address":"東京都中央区日本橋２－３－１０","tel":"03-6214-2001","mapUrl":"https://maps.google.co.jp/maps?q=%e4%b8%b8%e5%96%84%e6%97%a5%e6%9c%ac%e6%a9%8b%e5%ba%97","storeUrl":"http://honto.jp/store/detail_1575100_14HB310.html","position":{"lat":35.68118750000001,"long":139.77243749999997}},{"name":"大垣書店麻布台ヒルズ店","post":"〒106-0041","address":"東京都港区麻布台１－３－１ 麻布台ヒルズタワープラザ４Ｆ","tel":"03-5570-1700","mapUrl":"https://maps.google.co.jp/maps?q=%e5%a4%a7%e5%9e%a3%e6%9b%b8%e5%ba%97%e9%ba%bb%e5%b8%83%e5%8f%b0%e3%83%92%e3%83%ab%e3%82%ba%e5%ba%97","storeUrl":"https://www.books-ogaki.co.jp/","position":{"lat":35.66068750000001,"long":139.73981250000003}},{"name":"くまざわ書店田町店","post":"〒108-0023","address":"東京都港区芝浦３－１－２１ 田町ステーションタワーＳ棟４階","tel":"03-5476-0510","mapUrl":"https://maps.google.co.jp/maps?q=%e3%81%8f%e3%81%be%e3%81%96%e3%82%8f%e6%9b%b8%e5%ba%97%e7%94%b0%e7%94%ba%e5%ba%97","storeUrl":"https://www.kumabook.com/","position":{"lat":35.645062499999995,"long":139.74931250000003}},{"name":"くまざわ書店品川店","post":"〒108-6002","address":"東京都港区港南２－１５－２ 品川インターシティＡ棟２Ｆ","tel":"03-3472-0481","mapUrl":"https://maps.google.co.jp/maps?q=%e3%81%8f%e3%81%be%e3%81%96%e3%82%8f%e6%9b%b8%e5%ba%97%e5%93%81%e5%b7%9d%e5%ba%97","storeUrl":"https://www.kumabook.com/","position":{"lat":35.627562499999996,"long":139.74206250000003}},{"name":"中央大学生協理工店","post":"〒112-8551","address":"東京都文京区春日１－１３－２７","tel":"03-3814-5928","mapUrl":"https://maps.google.co.jp/maps?q=%e4%b8%ad%e5%a4%ae%e5%a4%a7%e5%ad%a6%e7%94%9f%e5%8d%94%e7%90%86%e5%b7%a5%e5%ba%97","storeUrl":"https://www.chudai-seikyo.or.jp/","position":{"lat":35.708187499999994,"long":139.7489375}},{"name":"談･文教堂赤羽店","post":"〒115-0045","address":"東京都北区赤羽１－７－９ ＭＥＴＳ赤羽第一葉山ビル","tel":"03-5249-2601","mapUrl":"https://maps.google.co.jp/maps?q=%e8%ab%87%ef%bd%a5%e6%96%87%e6%95%99%e5%a0%82%e8%b5%a4%e7%be%bd%e5%ba%97","storeUrl":"https://www.bunkyodo.co.jp/page-list-store/","position":{"lat":35.779062499999995,"long":139.72218749999996}},{"name":"くまざわ書店錦糸町店","post":"〒130-0013","address":"東京都墨田区錦糸２－２－１ アルカキット錦糸町９Ｆ","tel":"03-5610-3034","mapUrl":"https://maps.google.co.jp/maps?q=%e3%81%8f%e3%81%be%e3%81%96%e3%82%8f%e6%9b%b8%e5%ba%97%e9%8c%a6%e7%b3%b8%e7%94%ba%e5%ba%97","storeUrl":"https://www.kumabook.com/","position":{"lat":35.69743750000001,"long":139.81268750000004}},{"name":"ヨドバシカメラ錦糸町店","post":"〒130-0022","address":"東京都墨田区江東橋３－１４－５ テルミナ２Ｆ","tel":"03-3632-1010","mapUrl":"https://maps.google.co.jp/maps?q=%e3%83%a8%e3%83%89%e3%83%90%e3%82%b7%e3%82%ab%e3%83%a1%e3%83%a9%e9%8c%a6%e7%b3%b8%e7%94%ba%e5%ba%97","storeUrl":"https://www.yodobashi.com/","position":{"lat":35.6964375,"long":139.8141875}},{"name":"丸善有明ガーデン店","post":"〒135-0063","address":"東京都江東区有明２－１－８ 有明ガーデン４Ｆ","tel":"03-5962-4180","mapUrl":"https://maps.google.co.jp/maps?q=%e4%b8%b8%e5%96%84%e6%9c%89%e6%98%8e%e3%82%ac%e3%83%bc%e3%83%87%e3%83%b3%e5%ba%97","storeUrl":"https://honto.jp/store/detail_1570218_14HB310.html","position":{"lat":35.63806249999999,"long":139.7924375}},{"name":"未来屋書店品川シーサイド店","post":"〒140-0002","address":"東京都品川区東品川４－１２－５ イオン品川シーサイドＳＣ３Ｆ","tel":"03-5783-9737","mapUrl":"https://maps.google.co.jp/maps?q=%e6%9c%aa%e6%9d%a5%e5%b1%8b%e6%9b%b8%e5%ba%97%e5%93%81%e5%b7%9d%e3%82%b7%e3%83%bc%e3%82%b5%e3%82%a4%e3%83%89%e5%ba%97","storeUrl":"https://www.miraiyashoten.co.jp/store/","position":{"lat":35.6105625,"long":139.74981250000002}},{"name":"有隣堂アトレ大井町店","post":"〒140-0014","address":"東京都品川区大井１－２－１ アトレ大井町店５Ｆ５１３０","tel":"03-5709-7361","mapUrl":"https://maps.google.co.jp/maps?q=%e6%9c%89%e9%9a%a3%e5%a0%82%e3%82%a2%e3%83%88%e3%83%ac%e5%a4%a7%e4%ba%95%e7%94%ba%e5%ba%97","storeUrl":"https://www.yurindo.co.jp/storeguide/","position":{"lat":35.60631249999999,"long":139.73481250000003}},{"name":"有隣堂アトレ目黒店","post":"〒141-0021","address":"東京都品川区上大崎２－１６－７ アトレ目黒１　Ｂ館３Ｆ","tel":"03-3442-1231","mapUrl":"https://maps.google.co.jp/maps?q=%e6%9c%89%e9%9a%a3%e5%a0%82%e3%82%a2%e3%83%88%e3%83%ac%e7%9b%ae%e9%bb%92%e5%ba%97","storeUrl":"https://www.yurindo.co.jp/storeguide/","position":{"lat":35.634062499999985,"long":139.7159375}},{"name":"ブックファースト五反田店","post":"〒141-0022","address":"東京都品川区東五反田２－１－２ 五反田東急スクエア７Ｆ","tel":"03-6408-1811","mapUrl":"https://maps.google.co.jp/maps?q=%e3%83%96%e3%83%83%e3%82%af%e3%83%95%e3%82%a1%e3%83%bc%e3%82%b9%e3%83%88%e4%ba%94%e5%8f%8d%e7%94%b0%e5%ba%97","storeUrl":"http://www.book1st.net/","position":{"lat":35.625437500000004,"long":139.7245625}},{"name":"ブックファーストアトレ大森店","post":"〒143-0016","address":"東京都大田区大森北１－６－１６ アトレ大森４Ｆ","tel":"03-5767-6831","mapUrl":"https://maps.google.co.jp/maps?q=%e3%83%96%e3%83%83%e3%82%af%e3%83%95%e3%82%a1%e3%83%bc%e3%82%b9%e3%83%88%e3%82%a2%e3%83%88%e3%83%ac%e5%a4%a7%e6%a3%ae%e5%ba%97","storeUrl":"http://www.book1st.net/","position":{"lat":35.588562499999995,"long":139.72843749999998}},{"name":"有隣堂グランデュオ蒲田店","post":"〒144-0051","address":"東京都大田区西蒲田７－６８－１ グランデュオ蒲田西館６Ｆ","tel":"03-5703-1921","mapUrl":"https://maps.google.co.jp/maps?q=%e6%9c%89%e9%9a%a3%e5%a0%82%e3%82%b0%e3%83%a9%e3%83%b3%e3%83%87%e3%83%a5%e3%82%aa%e8%92%b2%e7%94%b0%e5%ba%97","storeUrl":"https://www.yurindo.co.jp/storeguide/","position":{"lat":35.5624375,"long":139.7161875}},{"name":"くまざわ書店蒲田店","post":"〒144-0052","address":"東京都大田区蒲田５－１３－１ グランデュオ蒲田東館６Ｆ","tel":"03-3737-5351","mapUrl":"https://maps.google.co.jp/maps?q=%e3%81%8f%e3%81%be%e3%81%96%e3%82%8f%e6%9b%b8%e5%ba%97%e8%92%b2%e7%94%b0%e5%ba%97","storeUrl":"https://www.kumabook.com/","position":{"lat":35.5624375,"long":139.7161875}},{"name":"有隣堂アトレ恵比寿店","post":"〒150-0022","address":"東京都渋谷区恵比寿南１－５－５ アトレ恵比寿５Ｆ　５０８０","tel":"03-5475-8384","mapUrl":"https://maps.google.co.jp/maps?q=%e6%9c%89%e9%9a%a3%e5%a0%82%e3%82%a2%e3%83%88%e3%83%ac%e6%81%b5%e6%af%94%e5%af%bf%e5%ba%97","storeUrl":"https://www.yurindo.co.jp/storeguide/","position":{"lat":35.64706249999999,"long":139.7098125}},{"name":"啓文堂書店渋谷店","post":"〒150-0043","address":"東京都渋谷区道玄坂１－４－１９ 井の頭線渋谷駅　西口改札前","tel":"03-5784-3800","mapUrl":"https://maps.google.co.jp/maps?q=%e5%95%93%e6%96%87%e5%a0%82%e6%9b%b8%e5%ba%97%e6%b8%8b%e8%b0%b7%e5%ba%97","storeUrl":"https://www.keibundo.co.jp/","position":{"lat":35.6585625,"long":139.6995625}},{"name":"恭文堂書店","post":"〒152-0004","address":"東京都目黒区鷹番３－３－１９","tel":"03-3712-4049","mapUrl":"https://maps.google.co.jp/maps?q=%e6%81%ad%e6%96%87%e5%a0%82%e6%9b%b8%e5%ba%97","storeUrl":"http://www.kyobundo.co.jp/","position":{"lat":35.6286875,"long":139.68568750000003}},{"name":"紀伊國屋書店玉川高島屋店","post":"〒158-0094","address":"東京都世田谷区玉川３－１７－１ 玉川高島屋ショッピングセンター南館５Ｆ","tel":"03-3709-2091","mapUrl":"https://maps.google.co.jp/maps?q=%e7%b4%80%e4%bc%8a%e5%9c%8b%e5%b1%8b%e6%9b%b8%e5%ba%97%e7%8e%89%e5%b7%9d%e9%ab%98%e5%b3%b6%e5%b1%8b%e5%ba%97","storeUrl":"https://www.kinokuniya.co.jp/","position":{"lat":35.614437499999994,"long":139.62681250000003}},{"name":"文教堂書店二子玉川店","post":"〒158-0094","address":"東京都世田谷区玉川２－２１－１ 二子玉川ライズショッピングセンター　タウンフロント６Ｆ","tel":"03-5797-5168","mapUrl":"https://maps.google.co.jp/maps?q=%e6%96%87%e6%95%99%e5%a0%82%e6%9b%b8%e5%ba%97%e4%ba%8c%e5%ad%90%e7%8e%89%e5%b7%9d%e5%ba%97","storeUrl":"https://www.bunkyodo.co.jp/page-list-store/","position":{"lat":35.6118125,"long":139.62818750000002}},{"name":"くまざわ書店オペラシティ店","post":"〒160-0023","address":"東京都新宿区西新宿３－２０－２ 東京オペラシティ２Ｆ","tel":"03-5334-6066","mapUrl":"https://maps.google.co.jp/maps?q=%e3%81%8f%e3%81%be%e3%81%96%e3%82%8f%e6%9b%b8%e5%ba%97%e3%82%aa%e3%83%9a%e3%83%a9%e3%82%b7%e3%83%86%e3%82%a3%e5%ba%97","storeUrl":"https://www.kumabook.com/","position":{"lat":35.69493750000001,"long":139.70381250000003}},{"name":"ヨドバシカメラ新宿西口店マルチメディア館","post":"〒160-0023","address":"東京都新宿区西新宿１－１１－１","tel":"03-3346-1010","mapUrl":"https://maps.google.co.jp/maps?q=%e3%83%a8%e3%83%89%e3%83%90%e3%82%b7%e3%82%ab%e3%83%a1%e3%83%a9%e6%96%b0%e5%ae%bf%e8%a5%bf%e5%8f%a3%e5%ba%97%e3%83%9e%e3%83%ab%e3%83%81%e3%83%a1%e3%83%87%e3%82%a3%e3%82%a2%e9%a4%a8","storeUrl":"https://www.yodobashi.com/","position":{"lat":35.689562499999994,"long":139.6975625}},{"name":"ブックファースト新宿店","post":"〒160-0023","address":"東京都新宿区西新宿１－７－３ モード学園コクーンタワー内","tel":"03-5339-7688","mapUrl":"https://maps.google.co.jp/maps?q=%e3%83%96%e3%83%83%e3%82%af%e3%83%95%e3%82%a1%e3%83%bc%e3%82%b9%e3%83%88%e6%96%b0%e5%ae%bf%e5%ba%97","storeUrl":"http://www.book1st.net/","position":{"lat":35.691687500000015,"long":139.6969375}},{"name":"紀伊國屋書店新宿本店","post":"〒162-0022","address":"東京都新宿区新宿３－１７－７","tel":"03-3354-0131","mapUrl":"https://maps.google.co.jp/maps?q=%e7%b4%80%e4%bc%8a%e5%9c%8b%e5%b1%8b%e6%9b%b8%e5%ba%97%e6%96%b0%e5%ae%bf%e6%9c%ac%e5%ba%97","storeUrl":"https://www.kinokuniya.co.jp/","position":{"lat":35.69218750000002,"long":139.70293750000002}},{"name":"ブックファースト中野店","post":"〒164-0001","address":"東京都中野区中野４－３－１ 中野サンクォーレ１Ｆ・２Ｆ","tel":"03-3319-5161","mapUrl":"https://maps.google.co.jp/maps?q=%e3%83%96%e3%83%83%e3%82%af%e3%83%95%e3%82%a1%e3%83%bc%e3%82%b9%e3%83%88%e4%b8%ad%e9%87%8e%e5%ba%97","storeUrl":"http://www.book1st.net/","position":{"lat":35.70893749999999,"long":139.66468749999996}},{"name":"文教堂書店中野坂上店","post":"〒164-0012","address":"東京都中野区本町２－４６－１ 中野坂上サンブライトツイン１Ｆ","tel":"03-5358-5285","mapUrl":"https://maps.google.co.jp/maps?q=%e6%96%87%e6%95%99%e5%a0%82%e6%9b%b8%e5%ba%97%e4%b8%ad%e9%87%8e%e5%9d%82%e4%b8%8a%e5%ba%97","storeUrl":"https://www.bunkyodo.co.jp/page-list-store/","position":{"lat":35.69668750000001,"long":139.68206249999997}},{"name":"書泉芳林堂書店高田馬場店","post":"〒169-0075","address":"東京都新宿区高田馬場１－２６－５ ＦＩビル","tel":"03-3208-0241","mapUrl":"https://maps.google.co.jp/maps?q=%e6%9b%b8%e6%b3%89%e8%8a%b3%e6%9e%97%e5%a0%82%e6%9b%b8%e5%ba%97%e9%ab%98%e7%94%b0%e9%a6%ac%e5%a0%b4%e5%ba%97","storeUrl":"https://www.shosen.co.jp/","position":{"lat":35.7128125,"long":139.70518750000002}},{"name":"三省堂書店池袋本店","post":"〒171-0022","address":"東京都豊島区南池袋１－２８－１ 西武池袋本店書籍館・別館","tel":"03-6864-8900","mapUrl":"https://maps.google.co.jp/maps?q=%e4%b8%89%e7%9c%81%e5%a0%82%e6%9b%b8%e5%ba%97%e6%b1%a0%e8%a2%8b%e6%9c%ac%e5%ba%97","storeUrl":"https://www.books-sanseido.co.jp/","position":{"lat":35.7276875,"long":139.7114375}},{"name":"ジュンク堂書店池袋本店","post":"〒171-0022","address":"東京都豊島区南池袋２－１５－５","tel":"03-5956-6111","mapUrl":"https://maps.google.co.jp/maps?q=%e3%82%b8%e3%83%a5%e3%83%b3%e3%82%af%e5%a0%82%e6%9b%b8%e5%ba%97%e6%b1%a0%e8%a2%8b%e6%9c%ac%e5%ba%97","storeUrl":"http://honto.jp/store/detail_1570019_14HB320.html","position":{"lat":35.726937500000005,"long":139.7123125}},{"name":"ジュンク堂書店大泉学園店","post":"〒178-0063","address":"東京都練馬区東大泉１－２８－１ グランエミオ３Ｆ","tel":"03-5947-3955","mapUrl":"https://maps.google.co.jp/maps?q=%e3%82%b8%e3%83%a5%e3%83%b3%e3%82%af%e5%a0%82%e6%9b%b8%e5%ba%97%e5%a4%a7%e6%b3%89%e5%ad%a6%e5%9c%92%e5%ba%97","storeUrl":"http://honto.jp/store/detail_1570139_14HB320.html","position":{"lat":35.7493125,"long":139.58768750000007}},{"name":"ジュンク堂書店吉祥寺店","post":"〒180-0004","address":"東京都武蔵野市吉祥寺本町１－１１－５ コピス吉祥寺６Ｆ・７Ｆ","tel":"0422-28-5333","mapUrl":"https://maps.google.co.jp/maps?q=%e3%82%b8%e3%83%a5%e3%83%b3%e3%82%af%e5%a0%82%e6%9b%b8%e5%ba%97%e5%90%89%e7%a5%a5%e5%af%ba%e5%ba%97","storeUrl":"http://honto.jp/store/detail_1570063_14HB320.html","position":{"lat":35.7049375,"long":139.5791875}},{"name":"ブックス・ルーエ","post":"〒180-0004","address":"東京都武蔵野市吉祥寺本町１－１４－３","tel":"0422-22-5677","mapUrl":"https://maps.google.co.jp/maps?q=%e3%83%96%e3%83%83%e3%82%af%e3%82%b9%e3%83%bb%e3%83%ab%e3%83%bc%e3%82%a8","storeUrl":"https://www.books-ruhe.co.jp/","position":{"lat":35.704687500000006,"long":139.58043750000002}},{"name":"ヨドバシカメラ吉祥寺店","post":"〒180-0004","address":"東京都武蔵野市吉祥寺本町１－１９－１","tel":"0422-29-1010","mapUrl":"https://maps.google.co.jp/maps?q=%e3%83%a8%e3%83%89%e3%83%90%e3%82%b7%e3%82%ab%e3%83%a1%e3%83%a9%e5%90%89%e7%a5%a5%e5%af%ba%e5%ba%97","storeUrl":"https://www.yodobashi.com/","position":{"lat":35.704687500000006,"long":139.58156250000002}},{"name":"啓文堂書店三鷹店","post":"〒181-0013","address":"東京都三鷹市下連雀３－３５－１ 三鷹コラル３Ｆ","tel":"0422-79-5840","mapUrl":"https://maps.google.co.jp/maps?q=%e5%95%93%e6%96%87%e5%a0%82%e6%9b%b8%e5%ba%97%e4%b8%89%e9%b7%b9%e5%ba%97","storeUrl":"https://www.keibundo.co.jp/","position":{"lat":35.701687500000006,"long":139.56068750000003}},{"name":"くまざわ書店調布店","post":"〒182-0024","address":"東京都調布市布田４－４－２２ トリエ京王調布Ａ館４Ｆ","tel":"042-490-2052","mapUrl":"https://maps.google.co.jp/maps?q=%e3%81%8f%e3%81%be%e3%81%96%e3%82%8f%e6%9b%b8%e5%ba%97%e8%aa%bf%e5%b8%83%e5%ba%97","storeUrl":"https://www.kumabook.com/","position":{"lat":35.65168750000001,"long":139.54506250000003}},{"name":"喜久屋書店府中店","post":"〒183-0023","address":"東京都府中市宮町１－４１－２ ＭｉｔｔｅＮ府中７Ｆ","tel":"042-306-6013","mapUrl":"https://maps.google.co.jp/maps?q=%e5%96%9c%e4%b9%85%e5%b1%8b%e6%9b%b8%e5%ba%97%e5%ba%9c%e4%b8%ad%e5%ba%97","storeUrl":"https://www.blg.co.jp/kikuya/","position":{"lat":35.6708125,"long":139.47993749999995}},{"name":"啓文堂書店府中本店","post":"〒183-0055","address":"東京都府中市府中町１－２－１ 京王府中ＳＣ駅ビル１Ｆ","tel":"042-366-3151","mapUrl":"https://maps.google.co.jp/maps?q=%e5%95%93%e6%96%87%e5%a0%82%e6%9b%b8%e5%ba%97%e5%ba%9c%e4%b8%ad%e6%9c%ac%e5%ba%97","storeUrl":"https://www.keibundo.co.jp/","position":{"lat":35.6724375,"long":139.47968749999995}},{"name":"くまざわ書店武蔵小金井店","post":"〒184-0004","address":"東京都小金井市本町５－１１－２ ＭＥＧＡドン・キホーテ武蔵小金井駅前店Ｂ１Ｆ","tel":"042-385-2351","mapUrl":"https://maps.google.co.jp/maps?q=%e3%81%8f%e3%81%be%e3%81%96%e3%82%8f%e6%9b%b8%e5%ba%97%e6%ad%a6%e8%94%b5%e5%b0%8f%e9%87%91%e4%ba%95%e5%ba%97","storeUrl":"https://www.kumabook.com/","position":{"lat":35.7018125,"long":139.50568750000002}},{"name":"紀伊國屋書店国分寺店","post":"〒185-0021","address":"東京都国分寺市南町３－２０－３ ＣＥＬＥＯ国分寺８Ｆ","tel":"042-325-3991","mapUrl":"https://maps.google.co.jp/maps?q=%e7%b4%80%e4%bc%8a%e5%9c%8b%e5%b1%8b%e6%9b%b8%e5%ba%97%e5%9b%bd%e5%88%86%e5%af%ba%e5%ba%97","storeUrl":"https://www.kinokuniya.co.jp/","position":{"lat":35.69981250000001,"long":139.48081249999996}},{"name":"オリオン書房ノルテ店","post":"〒190-0012","address":"東京都立川市曙町２－４２－１ パークアベニュー３Ｆ","tel":"042-522-1231","mapUrl":"https://maps.google.co.jp/maps?q=%e3%82%aa%e3%83%aa%e3%82%aa%e3%83%b3%e6%9b%b8%e6%88%bf%e3%83%8e%e3%83%ab%e3%83%86%e5%ba%97","storeUrl":"https://libroplus.co.jp/orionshobo/","position":{"lat":35.700937499999995,"long":139.41218749999996}},{"name":"未来屋書店日の出店","post":"〒190-0182","address":"東京都西多摩郡日の出町平井三吉野桜木５５７ イオンモール日の出１Ｆ","tel":"042-597-6255","mapUrl":"https://maps.google.co.jp/maps?q=%e6%9c%aa%e6%9d%a5%e5%b1%8b%e6%9b%b8%e5%ba%97%e6%97%a5%e3%81%ae%e5%87%ba%e5%ba%97","storeUrl":"https://www.miraiyashoten.co.jp/store/","position":{"lat":35.7391875,"long":139.28318750000005}},{"name":"ジュンク堂書店立川高島屋店","post":"〒190-8507","address":"東京都立川市曙町２－３９－３ 立川高島屋６階","tel":"042-512-9910","mapUrl":"https://maps.google.co.jp/maps?q=%e3%82%b8%e3%83%a5%e3%83%b3%e3%82%af%e5%a0%82%e6%9b%b8%e5%ba%97%e7%ab%8b%e5%b7%9d%e9%ab%98%e5%b3%b6%e5%b1%8b%e5%ba%97","storeUrl":"http://honto.jp/store/detail_1500219_14HB330.html","position":{"lat":35.7008125,"long":139.4134375}},{"name":"有隣堂八王子店","post":"〒192-0083","address":"東京都八王子市旭町１－１","tel":"042-655-2311","mapUrl":"https://maps.google.co.jp/maps?q=%e6%9c%89%e9%9a%a3%e5%a0%82%e5%85%ab%e7%8e%8b%e5%ad%90%e5%ba%97","storeUrl":"https://www.yurindo.co.jp/storeguide/","position":{"lat":35.656062500000004,"long":139.33906250000007}},{"name":"くまざわ書店本店","post":"〒192-0083","address":"東京都八王子市旭町２－１１","tel":"0426-25-1201","mapUrl":"https://maps.google.co.jp/maps?q=%e3%81%8f%e3%81%be%e3%81%96%e3%82%8f%e6%9b%b8%e5%ba%97%e6%9c%ac%e5%ba%97","storeUrl":"https://www.kumabook.com/","position":{"lat":35.656687500000004,"long":139.33843750000005}},{"name":"有隣堂八王子購買部","post":"〒192-8550","address":"東京都八王子市片倉町１４０４－１","tel":"0426-35-5060","mapUrl":"https://maps.google.co.jp/maps?q=%e6%9c%89%e9%9a%a3%e5%a0%82%e5%85%ab%e7%8e%8b%e5%ad%90%e8%b3%bc%e8%b2%b7%e9%83%a8","storeUrl":"https://www.yurindo.co.jp/storeguide/","position":{"lat":35.625812499999995,"long":139.34506250000004}},{"name":"ヨドバシカメラ町田駅前店","post":"〒194-0013","address":"東京都町田市原町田１－１－１１","tel":"042-721-1010","mapUrl":"https://maps.google.co.jp/maps?q=%e3%83%a8%e3%83%89%e3%83%90%e3%82%b7%e3%82%ab%e3%83%a1%e3%83%a9%e7%94%ba%e7%94%b0%e9%a7%85%e5%89%8d%e5%ba%97","storeUrl":"https://www.yodobashi.com/","position":{"lat":35.54218750000001,"long":139.44431250000002}},{"name":"久美堂本店","post":"〒194-0013","address":"東京都町田市原町田６－１１－１０","tel":"042-725-1330","mapUrl":"https://maps.google.co.jp/maps?q=%e4%b9%85%e7%be%8e%e5%a0%82%e6%9c%ac%e5%ba%97","storeUrl":"https://www.hisamido.co.jp/","position":{"lat":35.5444375,"long":139.4461875}},{"name":"有隣堂町田モディ店","post":"〒194-0013","address":"東京都町田市原町田６－２－６ 町田モディ８Ｆ","tel":"042-739-5231","mapUrl":"https://maps.google.co.jp/maps?q=%e6%9c%89%e9%9a%a3%e5%a0%82%e7%94%ba%e7%94%b0%e3%83%a2%e3%83%87%e3%82%a3%e5%ba%97","storeUrl":"https://www.yurindo.co.jp/storeguide/","position":{"lat":35.5431875,"long":139.44518750000003}},{"name":"アカデミアくまざわ書店桜ヶ丘店","post":"〒206-0011","address":"東京都多摩市関戸１－１１－１ 聖蹟桜ヶ丘ショッピングセンターＡ館７Ｆ","tel":"042-337-2531","mapUrl":"https://maps.google.co.jp/maps?q=%e3%82%a2%e3%82%ab%e3%83%87%e3%83%9f%e3%82%a2%e3%81%8f%e3%81%be%e3%81%96%e3%82%8f%e6%9b%b8%e5%ba%97%e6%a1%9c%e3%83%b6%e4%b8%98%e5%ba%97","storeUrl":"https://www.kumabook.com/","position":{"lat":35.65168750000001,"long":139.44706250000002}},{"name":"丸善多摩センター店","post":"〒206-0033","address":"東京都多摩市落合１－４６－１ 多摩センター三越５Ｆ","tel":"042-355-3220","mapUrl":"https://maps.google.co.jp/maps?q=%e4%b8%b8%e5%96%84%e5%a4%9a%e6%91%a9%e3%82%bb%e3%83%b3%e3%82%bf%e3%83%bc%e5%ba%97","storeUrl":"http://honto.jp/store/detail_1570067_14HB310.html","position":{"lat":35.62243749999999,"long":139.42481249999997}},{"name":"コーチャンフォー若葉台店","post":"〒206-0824","address":"東京都稲城市若葉台２－９－２","tel":"042-350-2800","mapUrl":"https://maps.google.co.jp/maps?q=%e3%82%b3%e3%83%bc%e3%83%81%e3%83%a3%e3%83%b3%e3%83%95%e3%82%a9%e3%83%bc%e8%8b%a5%e8%91%89%e5%8f%b0%e5%ba%97","storeUrl":"https://www.coachandfour.ne.jp/","position":{"lat":35.62343749999998,"long":139.4731875}},{"name":"オリオン書房むさし村山店","post":"〒208-0022","address":"東京都武蔵村山市榎１－１－３－３０１１ イオンモールむさし村山ミュー３Ｆ","tel":"042-567-6911","mapUrl":"https://maps.google.co.jp/maps?q=%e3%82%aa%e3%83%aa%e3%82%aa%e3%83%b3%e6%9b%b8%e6%88%bf%e3%82%80%e3%81%95%e3%81%97%e6%9d%91%e5%b1%b1%e5%ba%97","storeUrl":"https://libroplus.co.jp/orionshobo/","position":{"lat":35.7463125,"long":139.38481250000007}},{"name":"書房すみよし武蔵中原店","post":"〒211-0053","address":"神奈川県川崎市中原区上小田中４－２－１ ビーンズ武蔵中原２Ｆ","tel":"044-753-5678","mapUrl":"https://maps.google.co.jp/maps?q=%e6%9b%b8%e6%88%bf%e3%81%99%e3%81%bf%e3%82%88%e3%81%97%e6%ad%a6%e8%94%b5%e4%b8%ad%e5%8e%9f%e5%ba%97","storeUrl":"","position":{"lat":35.58143749999999,"long":139.64093750000006}},{"name":"丸善ラゾーナ川崎店","post":"〒212-8576","address":"神奈川県川崎市幸区堀川町７２－１ ラゾーナ川崎プラザ１階","tel":"044-520-1869","mapUrl":"https://maps.google.co.jp/maps?q=%e4%b8%b8%e5%96%84%e3%83%a9%e3%82%be%e3%83%bc%e3%83%8a%e5%b7%9d%e5%b4%8e%e5%ba%97","storeUrl":"http://honto.jp/store/detail_1572300_14HB310.html","position":{"lat":35.53393749999999,"long":139.6953125}},{"name":"文教堂書店溝ノ口本店","post":"〒213-0011","address":"神奈川県川崎市高津区久本３－１－２８","tel":"044-812-0063","mapUrl":"https://maps.google.co.jp/maps?q=%e6%96%87%e6%95%99%e5%a0%82%e6%9b%b8%e5%ba%97%e6%ba%9d%e3%83%8e%e5%8f%a3%e6%9c%ac%e5%ba%97","storeUrl":"https://www.bunkyodo.co.jp/page-list-store/","position":{"lat":35.5980625,"long":139.6130625}},{"name":"丸善ブックセンター明治大学生田店","post":"〒214-8571","address":"神奈川県川崎市多摩区東三田１－１－１ 明治大学生田校舎内","tel":"044-920-6253","mapUrl":"https://maps.google.co.jp/maps?q=%e4%b8%b8%e5%96%84%e3%83%96%e3%83%83%e3%82%af%e3%82%bb%e3%83%b3%e3%82%bf%e3%83%bc%e6%98%8e%e6%b2%bb%e5%a4%a7%e5%ad%a6%e7%94%9f%e7%94%b0%e5%ba%97","storeUrl":"https://yushodo.maruzen.co.jp/","position":{"lat":35.61281249999999,"long":139.54918750000002}},{"name":"ヨドバシカメラマルチメディア横浜店","post":"〒220-0004","address":"神奈川県横浜市西区北幸１－２－７","tel":"045-313-1010","mapUrl":"https://maps.google.co.jp/maps?q=%e3%83%a8%e3%83%89%e3%83%90%e3%82%b7%e3%82%ab%e3%83%a1%e3%83%a9%e3%83%9e%e3%83%ab%e3%83%81%e3%83%a1%e3%83%87%e3%82%a3%e3%82%a2%e6%a8%aa%e6%b5%9c%e5%ba%97","storeUrl":"https://www.yodobashi.com/","position":{"lat":35.4676875,"long":139.62043750000004}},{"name":"有隣堂横浜駅西口店","post":"〒220-0004","address":"神奈川県横浜市西区北幸１－１－８ エキニア横浜Ｂ３Ｆ","tel":"045-311-6265","mapUrl":"https://maps.google.co.jp/maps?q=%e6%9c%89%e9%9a%a3%e5%a0%82%e6%a8%aa%e6%b5%9c%e9%a7%85%e8%a5%bf%e5%8f%a3%e5%ba%97","storeUrl":"https://www.yurindo.co.jp/storeguide/","position":{"lat":35.4675625,"long":139.62156250000004}},{"name":"丸善横浜みなとみらい店","post":"〒220-0012","address":"神奈川県横浜市西区みなとみらい２－３－２ みなとみらい東急スクエア３階","tel":"045-323-9660","mapUrl":"https://maps.google.co.jp/maps?q=%e4%b8%b8%e5%96%84%e6%a8%aa%e6%b5%9c%e3%81%bf%e3%81%aa%e3%81%a8%e3%81%bf%e3%82%89%e3%81%84%e5%ba%97","storeUrl":"https://honto.jp/store/detail_1570191_14HB310.html","position":{"lat":35.4566875,"long":139.63443750000005}},{"name":"紀伊國屋書店横浜店","post":"〒220-8510","address":"神奈川県横浜市西区高島２－１８－１ そごう横浜店７Ｆ","tel":"045-450-5901","mapUrl":"https://maps.google.co.jp/maps?q=%e7%b4%80%e4%bc%8a%e5%9c%8b%e5%b1%8b%e6%9b%b8%e5%ba%97%e6%a8%aa%e6%b5%9c%e5%ba%97","storeUrl":"https://www.kinokuniya.co.jp/","position":{"lat":35.46543750000001,"long":139.6250625}},{"name":"神奈川大学生協","post":"〒221-0802","address":"神奈川県横浜市神奈川区六角橋４－７－３","tel":"045-481-4012","mapUrl":"https://maps.google.co.jp/maps?q=%e7%a5%9e%e5%a5%88%e5%b7%9d%e5%a4%a7%e5%ad%a6%e7%94%9f%e5%8d%94","storeUrl":"http://www.ku-coop.org/w/index.html","position":{"lat":35.48531249999999,"long":139.61893750000002}},{"name":"有隣堂キュービックプラザ新横浜店","post":"〒222-0033","address":"神奈川県横浜市港北区新横浜２－１００－４５ キュービックプラザ新横浜８Ｆ","tel":"045-577-9470","mapUrl":"https://maps.google.co.jp/maps?q=%e6%9c%89%e9%9a%a3%e5%a0%82%e3%82%ad%e3%83%a5%e3%83%bc%e3%83%93%e3%83%83%e3%82%af%e3%83%97%e3%83%a9%e3%82%b6%e6%96%b0%e6%a8%aa%e6%b5%9c%e5%ba%97","storeUrl":"https://www.yurindo.co.jp/storeguide/","position":{"lat":35.508062499999994,"long":139.61756250000002}},{"name":"くまざわ書店アピタテラス横浜綱島店","post":"〒223-0052","address":"神奈川県横浜市港北区綱島東４－３－１７ アピタテラス横浜綱島２Ｆ　２１９区画","tel":"045-533-4072","mapUrl":"https://maps.google.co.jp/maps?q=%e3%81%8f%e3%81%be%e3%81%96%e3%82%8f%e6%9b%b8%e5%ba%97%e3%82%a2%e3%83%94%e3%82%bf%e3%83%86%e3%83%a9%e3%82%b9%e6%a8%aa%e6%b5%9c%e7%b6%b1%e5%b3%b6%e5%ba%97","storeUrl":"https://www.kumabook.com/","position":{"lat":35.542437500000005,"long":139.64181250000007}},{"name":"アカデミア港北店","post":"〒224-0003","address":"神奈川県横浜市都筑区中川中央１－２５－１ ノースポートモール３Ｆ","tel":"045-914-3320","mapUrl":"https://maps.google.co.jp/maps?q=%e3%82%a2%e3%82%ab%e3%83%87%e3%83%9f%e3%82%a2%e6%b8%af%e5%8c%97%e5%ba%97","storeUrl":"https://www.kumabook.com/","position":{"lat":35.55206249999999,"long":139.57943749999998}},{"name":"紀伊國屋書店ららぽーと横浜店","post":"〒224-0053","address":"神奈川県横浜市都筑区池辺町４０３５－１ ららぽーと横浜３Ｆ　３５０９０","tel":"045-938-4481","mapUrl":"https://maps.google.co.jp/maps?q=%e7%b4%80%e4%bc%8a%e5%9c%8b%e5%b1%8b%e6%9b%b8%e5%ba%97%e3%82%89%e3%82%89%e3%81%bd%e3%83%bc%e3%81%a8%e6%a8%aa%e6%b5%9c%e5%ba%97","storeUrl":"https://www.kinokuniya.co.jp/","position":{"lat":35.5174375,"long":139.56656250000003}},{"name":"ブックファースト青葉台店","post":"〒227-8555","address":"神奈川県横浜市青葉区青葉台２－１－１ 青葉台東急スクエアＳｏｕｔｈ－１別館","tel":"045-989-1781","mapUrl":"https://maps.google.co.jp/maps?q=%e3%83%96%e3%83%83%e3%82%af%e3%83%95%e3%82%a1%e3%83%bc%e3%82%b9%e3%83%88%e9%9d%92%e8%91%89%e5%8f%b0%e5%ba%97","storeUrl":"http://www.book1st.net/","position":{"lat":35.5420625,"long":139.5159375}},{"name":"有隣堂本店","post":"〒231-8623","address":"神奈川県横浜市中区伊勢佐木町１－４－１","tel":"045-261-1231","mapUrl":"https://maps.google.co.jp/maps?q=%e6%9c%89%e9%9a%a3%e5%a0%82%e6%9c%ac%e5%ba%97","storeUrl":"https://www.yurindo.co.jp/storeguide/","position":{"lat":35.4445625,"long":139.63331250000005}},{"name":"くまざわ書店横須賀店","post":"〒238-0041","address":"神奈川県横須賀市本町２－１－１２ コースカベイサイドストアーズ４Ｆ","tel":"046-821-2403","mapUrl":"https://maps.google.co.jp/maps?q=%e3%81%8f%e3%81%be%e3%81%96%e3%82%8f%e6%9b%b8%e5%ba%97%e6%a8%aa%e9%a0%88%e8%b3%80%e5%ba%97","storeUrl":"https://www.kumabook.com/","position":{"lat":35.283312499999994,"long":139.6626875}},{"name":"くまざわ書店ジョイナステラス二俣川店","post":"〒241-0821","address":"神奈川県横浜市旭区二俣川２－５０－１４ ＪＯＩＮＵＳ　ＴＥＲＲＡＣＥ５Ｆ","tel":"045-360-1177","mapUrl":"https://maps.google.co.jp/maps?q=%e3%81%8f%e3%81%be%e3%81%96%e3%82%8f%e6%9b%b8%e5%ba%97%e3%82%b8%e3%83%a7%e3%82%a4%e3%83%8a%e3%82%b9%e3%83%86%e3%83%a9%e3%82%b9%e4%ba%8c%e4%bf%a3%e5%b7%9d%e5%ba%97","storeUrl":"https://www.kumabook.com/","position":{"lat":35.46218750000001,"long":139.53143749999998}},{"name":"有隣堂厚木店","post":"〒243-0018","address":"神奈川県厚木市中町２－６ 三成ほていやビル","tel":"046-223-4111","mapUrl":"https://maps.google.co.jp/maps?q=%e6%9c%89%e9%9a%a3%e5%a0%82%e5%8e%9a%e6%9c%a8%e5%ba%97","storeUrl":"https://www.yurindo.co.jp/storeguide/","position":{"lat":35.44081250000001,"long":139.36368750000003}},{"name":"有隣堂戸塚モディ店","post":"〒244-0003","address":"神奈川県横浜市戸塚区戸塚町１０ 戸塚モディ４Ｆ","tel":"045-881-2661","mapUrl":"https://maps.google.co.jp/maps?q=%e6%9c%89%e9%9a%a3%e5%a0%82%e6%88%b8%e5%a1%9a%e3%83%a2%e3%83%87%e3%82%a3%e5%ba%97","storeUrl":"https://www.yurindo.co.jp/storeguide/","position":{"lat":35.4013125,"long":139.53468750000002}},{"name":"有隣堂テラスモール湘南店","post":"〒251-0047","address":"神奈川県藤沢市辻堂神台１－３－１ テラスモール湘南４Ｆ","tel":"0466-38-2121","mapUrl":"https://maps.google.co.jp/maps?q=%e6%9c%89%e9%9a%a3%e5%a0%82%e3%83%86%e3%83%a9%e3%82%b9%e3%83%a2%e3%83%bc%e3%83%ab%e6%b9%98%e5%8d%97%e5%ba%97","storeUrl":"https://www.yurindo.co.jp/storeguide/","position":{"lat":35.33831249999999,"long":139.44718749999998}},{"name":"ジュンク堂書店藤沢店","post":"〒251-0052","address":"神奈川県藤沢市藤沢５５９ ビックカメラ７Ｆ・８Ｆ","tel":"0466-52-1211","mapUrl":"https://maps.google.co.jp/maps?q=%e3%82%b8%e3%83%a5%e3%83%b3%e3%82%af%e5%a0%82%e6%9b%b8%e5%ba%97%e8%97%a4%e6%b2%a2%e5%ba%97","storeUrl":"http://honto.jp/store/detail_1570045_14HB320.html","position":{"lat":35.339562499999985,"long":139.48818750000004}},{"name":"有隣堂藤沢店","post":"〒251-0055","address":"神奈川県藤沢市南藤沢２－１－１ 名店ビル内","tel":"0466-26-1411","mapUrl":"https://maps.google.co.jp/maps?q=%e6%9c%89%e9%9a%a3%e5%a0%82%e8%97%a4%e6%b2%a2%e5%ba%97","storeUrl":"https://www.yurindo.co.jp/storeguide/","position":{"lat":35.33868749999999,"long":139.48843750000003}},{"name":"ACADEMIAくまざわ書店橋本店","post":"〒252-0146","address":"神奈川県相模原市緑区大山町１－２２ アリオ橋本店１Ｆ","tel":"042-700-7020","mapUrl":"https://maps.google.co.jp/maps?q=ACADEMIA%e3%81%8f%e3%81%be%e3%81%96%e3%82%8f%e6%9b%b8%e5%ba%97%e6%a9%8b%e6%9c%ac%e5%ba%97","storeUrl":"https://www.kumabook.com/","position":{"lat":35.59106250000001,"long":139.34868750000004}},{"name":"くまざわ書店相模大野店","post":"〒252-0303","address":"神奈川県相模原市南区相模大野３－８－１ 相模大野ステーションスクエアＡ棟６Ｆ","tel":"042-767-1285","mapUrl":"https://maps.google.co.jp/maps?q=%e3%81%8f%e3%81%be%e3%81%96%e3%82%8f%e6%9b%b8%e5%ba%97%e7%9b%b8%e6%a8%a1%e5%a4%a7%e9%87%8e%e5%ba%97","storeUrl":"https://www.kumabook.com/","position":{"lat":35.53156249999999,"long":139.4371875}},{"name":"紀伊國屋書店東海大学ブックセンター","post":"〒259-1207","address":"神奈川県平塚市北金目１１１７ 東海大学８号館内","tel":"0463-50-1250","mapUrl":"https://maps.google.co.jp/maps?q=%e7%b4%80%e4%bc%8a%e5%9c%8b%e5%b1%8b%e6%9b%b8%e5%ba%97%e6%9d%b1%e6%b5%b7%e5%a4%a7%e5%ad%a6%e3%83%96%e3%83%83%e3%82%af%e3%82%bb%e3%83%b3%e3%82%bf%e3%83%bc","storeUrl":"https://corp.kinokuniya.co.jp/location/univ/","position":{"lat":35.363812499999995,"long":139.27443749999998}},{"name":"戸田書店長岡店","post":"〒940-2024","address":"新潟県長岡市堺町浦田２５","tel":"0258-22-5911","mapUrl":"https://maps.google.co.jp/maps?q=%e6%88%b8%e7%94%b0%e6%9b%b8%e5%ba%97%e9%95%b7%e5%b2%a1%e5%ba%97","storeUrl":"http://www.todabooks.co.jp/","position":{"lat":37.46125000000001,"long":138.80875}},{"name":"文信堂書店技大店","post":"〒940-2137","address":"新潟県長岡市上富岡町１６０３－１ 長岡技術大学売店","tel":"0258-46-6437","mapUrl":"https://maps.google.co.jp/maps?q=%e6%96%87%e4%bf%a1%e5%a0%82%e6%9b%b8%e5%ba%97%e6%8a%80%e5%a4%a7%e5%ba%97","storeUrl":"","position":{"lat":37.42406249999999,"long":138.7779375}},{"name":"くまざわ書店ＣｏＣｏＬｏ新潟店","post":"〒950-0086","address":"新潟県新潟市中央区花園１－１－１ ＣｏＣｏＬｏ新潟２Ｆ","tel":"025-244-4011","mapUrl":"https://maps.google.co.jp/maps?q=%e3%81%8f%e3%81%be%e3%81%96%e3%82%8f%e6%9b%b8%e5%ba%97%ef%bc%a3%ef%bd%8f%ef%bc%a3%ef%bd%8f%ef%bc%ac%ef%bd%8f%e6%96%b0%e6%bd%9f%e5%ba%97","storeUrl":"https://www.kumabook.com/","position":{"lat":37.912062500000005,"long":139.06181250000003}},{"name":"ジュンク堂書店新潟店","post":"〒950-0911","address":"新潟県新潟市中央区笹口１－１ プラーカ１　１Ｆ・Ｂ１Ｆ","tel":"025-374-4411","mapUrl":"https://maps.google.co.jp/maps?q=%e3%82%b8%e3%83%a5%e3%83%b3%e3%82%af%e5%a0%82%e6%9b%b8%e5%ba%97%e6%96%b0%e6%bd%9f%e5%ba%97","storeUrl":"http://honto.jp/store/detail_1570038_14HB320.html","position":{"lat":37.910812500000006,"long":139.06406250000003}},{"name":"知遊堂亀貝店","post":"〒950-2033","address":"新潟県新潟市西区亀貝５２１番地","tel":"025-211-1858","mapUrl":"https://maps.google.co.jp/maps?q=%e7%9f%a5%e9%81%8a%e5%a0%82%e4%ba%80%e8%b2%9d%e5%ba%97","storeUrl":"http://chiyudo.com/chiyu/kame/","position":{"lat":37.86874999999999,"long":138.98375000000001}},{"name":"知遊堂三条店","post":"〒955-0083","address":"新潟県三条市荒町２－２５－４","tel":"0256-36-7171","mapUrl":"https://maps.google.co.jp/maps?q=%e7%9f%a5%e9%81%8a%e5%a0%82%e4%b8%89%e6%9d%a1%e5%ba%97","storeUrl":"http://chiyudo.com/chiyu/sanjo/","position":{"lat":37.638312499999984,"long":138.95243749999997}},{"name":"くまざわ書店富山マルート店","post":"〒930-0001","address":"富山県富山市明輪町１番２３１ ＭＡＲＯＯＴ４Ｆ","tel":"076-431-5581","mapUrl":"https://maps.google.co.jp/maps?q=%e3%81%8f%e3%81%be%e3%81%96%e3%82%8f%e6%9b%b8%e5%ba%97%e5%af%8c%e5%b1%b1%e3%83%9e%e3%83%ab%e3%83%bc%e3%83%88%e5%ba%97","storeUrl":"https://www.kumabook.com/","position":{"lat":36.7014375,"long":137.2120625}},{"name":"紀伊國屋書店富山店","post":"〒930-0083","address":"富山県富山市総曲輪３－８－６ 総曲輪フェリオ７Ｆ","tel":"076-491-7031","mapUrl":"https://maps.google.co.jp/maps?q=%e7%b4%80%e4%bc%8a%e5%9c%8b%e5%b1%8b%e6%9b%b8%e5%ba%97%e5%af%8c%e5%b1%b1%e5%ba%97","storeUrl":"https://www.kinokuniya.co.jp/","position":{"lat":36.6894375,"long":137.21331249999997}},{"name":"文苑堂書店富山豊田店","post":"〒931-8313","address":"富山県富山市豊田町２－８－１４","tel":"076-433-8150","mapUrl":"https://maps.google.co.jp/maps?q=%e6%96%87%e8%8b%91%e5%a0%82%e6%9b%b8%e5%ba%97%e5%af%8c%e5%b1%b1%e8%b1%8a%e7%94%b0%e5%ba%97","storeUrl":"https://www.bunendo.com/","position":{"lat":36.7230625,"long":137.23643750000002}},{"name":"文苑堂書店福田本店","post":"〒933-0829","address":"富山県高岡市福田４３","tel":"0766-27-7800","mapUrl":"https://maps.google.co.jp/maps?q=%e6%96%87%e8%8b%91%e5%a0%82%e6%9b%b8%e5%ba%97%e7%a6%8f%e7%94%b0%e6%9c%ac%e5%ba%97","storeUrl":"https://www.bunendo.com/","position":{"lat":36.7354375,"long":136.98268750000005}},{"name":"BOOKSなかだ本店本館","post":"〒939-8212","address":"富山県富山市掛尾町１８０－１","tel":"076-492-1192","mapUrl":"https://maps.google.co.jp/maps?q=BOOKS%e3%81%aa%e3%81%8b%e3%81%a0%e6%9c%ac%e5%ba%97%e6%9c%ac%e9%a4%a8","storeUrl":"http://books-nakada.co.jp/","position":{"lat":36.66718750000001,"long":137.21193749999998}},{"name":"うつのみや金沢香林坊店","post":"〒920-0961","address":"石川県金沢市香林坊２－１－１ 香林坊東急スクエアＢＦ","tel":"076-234-8111","mapUrl":"https://maps.google.co.jp/maps?q=%e3%81%86%e3%81%a4%e3%81%ae%e3%81%bf%e3%82%84%e9%87%91%e6%b2%a2%e9%a6%99%e6%9e%97%e5%9d%8a%e5%ba%97","storeUrl":"https://www.utsunomiya.co.jp/","position":{"lat":36.5625625,"long":136.6531875}},{"name":"明文堂書店金沢ビーンズ店","post":"〒920-8203","address":"石川県金沢市鞍月５－１５８","tel":"076-239-4400","mapUrl":"https://maps.google.co.jp/maps?q=%e6%98%8e%e6%96%87%e5%a0%82%e6%9b%b8%e5%ba%97%e9%87%91%e6%b2%a2%e3%83%93%e3%83%bc%e3%83%b3%e3%82%ba%e5%ba%97","storeUrl":"https://www.meibundo-books.co.jp/","position":{"lat":36.59893749999999,"long":136.62368750000002}},{"name":"KITブックセンター","post":"〒921-8501","address":"石川県野々市市扇が丘７－１ 金沢工業大学内","tel":"076-248-4454","mapUrl":"https://maps.google.co.jp/maps?q=KIT%e3%83%96%e3%83%83%e3%82%af%e3%82%bb%e3%83%b3%e3%82%bf%e3%83%bc","storeUrl":"https://www.kit-group.jp/access/","position":{"lat":36.528687500000004,"long":136.6283125}},{"name":"明文堂書店金沢野々市店","post":"〒921-8825","address":"石川県野々市市栗田５－４６１","tel":"076-294-0930","mapUrl":"https://maps.google.co.jp/maps?q=%e6%98%8e%e6%96%87%e5%a0%82%e6%9b%b8%e5%ba%97%e9%87%91%e6%b2%a2%e9%87%8e%e3%80%85%e5%b8%82%e5%ba%97","storeUrl":"https://www.meibundo-books.co.jp/","position":{"lat":36.515187499999996,"long":136.60893750000002}},{"name":"明文堂書店小松ツリーズ","post":"〒923-0861","address":"石川県小松市沖町４５１番地","tel":"0761-23-4280","mapUrl":"https://maps.google.co.jp/maps?q=%e6%98%8e%e6%96%87%e5%a0%82%e6%9b%b8%e5%ba%97%e5%b0%8f%e6%9d%be%e3%83%84%e3%83%aa%e3%83%bc%e3%82%ba","storeUrl":"https://www.meibundo-books.co.jp/","position":{"lat":36.39643749999999,"long":136.46168749999998}},{"name":"勝木書店新二の宮店","post":"〒910-0015","address":"福井県福井市二の宮５－１８－８","tel":"077-627-4678","mapUrl":"https://maps.google.co.jp/maps?q=%e5%8b%9d%e6%9c%a8%e6%9b%b8%e5%ba%97%e6%96%b0%e4%ba%8c%e3%81%ae%e5%ae%ae%e5%ba%97","storeUrl":"https://www.katsuki-books.jp/","position":{"lat":36.08706249999999,"long":136.2081875}},{"name":"平安堂新長野店","post":"〒380-8539","address":"長野県長野市南千歳１－１－１ ながの東急別館シェルシュ内","tel":"026-224-4550","mapUrl":"https://maps.google.co.jp/maps?q=%e5%b9%b3%e5%ae%89%e5%a0%82%e6%96%b0%e9%95%b7%e9%87%8e%e5%ba%97","storeUrl":"https://www.heiando.co.jp/","position":{"lat":36.6454375,"long":138.18931250000003}},{"name":"平安堂上田しおだ野店","post":"〒386-1103","address":"長野県上田市神畑５０２－１ グリーンパークしおだ野内","tel":"0268-29-5254","mapUrl":"https://maps.google.co.jp/maps?q=%e5%b9%b3%e5%ae%89%e5%a0%82%e4%b8%8a%e7%94%b0%e3%81%97%e3%81%8a%e3%81%a0%e9%87%8e%e5%ba%97","storeUrl":"https://www.heiando.co.jp/","position":{"lat":36.3829375,"long":138.21168749999998}},{"name":"宮脇書店松本店","post":"〒390-0827","address":"長野県松本市出川２丁目３－１","tel":"0263-24-2435","mapUrl":"https://maps.google.co.jp/maps?q=%e5%ae%ae%e8%84%87%e6%9b%b8%e5%ba%97%e6%9d%be%e6%9c%ac%e5%ba%97","storeUrl":"https://www.miyawakishoten.com/","position":{"lat":36.2175625,"long":137.97193749999997}},{"name":"丸善松本店","post":"〒390-8507","address":"長野県松本市深志１－３－１１ コングロＭ・Ｂ１Ｆ・１Ｆ・２Ｆ","tel":"0263-31-8171","mapUrl":"https://maps.google.co.jp/maps?q=%e4%b8%b8%e5%96%84%e6%9d%be%e6%9c%ac%e5%ba%97","storeUrl":"http://honto.jp/store/detail_1570074_14HB310.html","position":{"lat":36.2295625,"long":137.96718749999997}},{"name":"大垣書店岐阜髙島屋店","post":"〒500-8525","address":"岐阜県岐阜市日ノ出町２－２５ 岐阜髙島屋９階","tel":"058-262-5661","mapUrl":"https://maps.google.co.jp/maps?q=%e5%a4%a7%e5%9e%a3%e6%9b%b8%e5%ba%97%e5%b2%90%e9%98%9c%e9%ab%99%e5%b3%b6%e5%b1%8b%e5%ba%97","storeUrl":"https://www.books-ogaki.co.jp/","position":{"lat":35.418437499999996,"long":136.75768750000003}},{"name":"丸善岐阜店","post":"〒502-0882","address":"岐阜県岐阜市正木中１－２－１ イオンモールマーサ２１　３Ｆ","tel":"058-297-7008","mapUrl":"https://maps.google.co.jp/maps?q=%e4%b8%b8%e5%96%84%e5%b2%90%e9%98%9c%e5%ba%97","storeUrl":"http://honto.jp/store/detail_1570143_14HB310.html","position":{"lat":35.4484375,"long":136.74481250000002}},{"name":"カルコス岐阜本店","post":"〒502-0914","address":"岐阜県岐阜市菅生８－７－２１","tel":"058-294-7500","mapUrl":"https://maps.google.co.jp/maps?q=%e3%82%ab%e3%83%ab%e3%82%b3%e3%82%b9%e5%b2%90%e9%98%9c%e6%9c%ac%e5%ba%97","storeUrl":"https://rakudagroup.ne.jp/culcos/","position":{"lat":35.42506250000001,"long":136.7335625}},{"name":"アカデミア大垣店","post":"〒503-0015","address":"岐阜県大垣市林町６－８０－２１ アクアウォーク大垣２Ｆ","tel":"0584-77-6450","mapUrl":"https://maps.google.co.jp/maps?q=%e3%82%a2%e3%82%ab%e3%83%87%e3%83%9f%e3%82%a2%e5%a4%a7%e5%9e%a3%e5%ba%97","storeUrl":"https://www.kumabook.com/","position":{"lat":35.36993749999999,"long":136.61731250000003}},{"name":"喜久屋書店大垣店","post":"〒503-0808","address":"岐阜県大垣市三塚町丹瀬４６３－１ ロックシティ大垣ショッピングセンター２Ｆ","tel":"0584-77-1717","mapUrl":"https://maps.google.co.jp/maps?q=%e5%96%9c%e4%b9%85%e5%b1%8b%e6%9b%b8%e5%ba%97%e5%a4%a7%e5%9e%a3%e5%ba%97","storeUrl":"https://www.blg.co.jp/kikuya/","position":{"lat":35.365562499999996,"long":136.62956250000002}},{"name":"カルコス各務原店","post":"〒504-0942","address":"岐阜県各務原市小佐野町１－１１","tel":"0583-89-7500","mapUrl":"https://maps.google.co.jp/maps?q=%e3%82%ab%e3%83%ab%e3%82%b3%e3%82%b9%e5%90%84%e5%8b%99%e5%8e%9f%e5%ba%97","storeUrl":"https://rakudagroup.ne.jp/culcos/","position":{"lat":35.390812499999996,"long":136.8286875}},{"name":"MARUZEN＆ジュンク堂書店新静岡店","post":"〒420-0839","address":"静岡県静岡市葵区鷹匠１－１－１ 新静岡セノバ５Ｆ","tel":"054-275-2777","mapUrl":"https://maps.google.co.jp/maps?q=MARUZEN%ef%bc%86%e3%82%b8%e3%83%a5%e3%83%b3%e3%82%af%e5%a0%82%e6%9b%b8%e5%ba%97%e6%96%b0%e9%9d%99%e5%b2%a1%e5%ba%97","storeUrl":"http://honto.jp/store/detail_1570070_14HB320.html","position":{"lat":34.97556250000001,"long":138.38718750000004}},{"name":"谷島屋浜松本店","post":"〒430-0926","address":"静岡県浜松市中央区砂山町６－１ 浜松メイワン８Ｆ","tel":"053-457-4165","mapUrl":"https://maps.google.co.jp/maps?q=%e8%b0%b7%e5%b3%b6%e5%b1%8b%e6%b5%9c%e6%9d%be%e6%9c%ac%e5%ba%97","storeUrl":"https://www.yajimaya.co.jp/","position":{"lat":34.7041875,"long":137.7344375}},{"name":"谷島屋イオンモール浜松志都呂店","post":"〒432-8069","address":"静岡県浜松市中央区志都呂２丁目３７番地１号","tel":"053-415-1341","mapUrl":"https://maps.google.co.jp/maps?q=%e8%b0%b7%e5%b3%b6%e5%b1%8b%e3%82%a4%e3%82%aa%e3%83%b3%e3%83%a2%e3%83%bc%e3%83%ab%e6%b5%9c%e6%9d%be%e5%bf%97%e9%83%bd%e5%91%82%e5%ba%97","storeUrl":"https://www.yajimaya.co.jp/","position":{"lat":34.69718750000001,"long":137.64943750000003}},{"name":"未来屋書店浜松市野店","post":"〒435-0052","address":"静岡県浜松市中央区天王町諏訪１９８１－３ イオンモール浜松市野２Ｆ","tel":"053-467-1330","mapUrl":"https://maps.google.co.jp/maps?q=%e6%9c%aa%e6%9d%a5%e5%b1%8b%e6%9b%b8%e5%ba%97%e6%b5%9c%e6%9d%be%e5%b8%82%e9%87%8e%e5%ba%97","storeUrl":"https://www.miraiyashoten.co.jp/store/","position":{"lat":34.740187500000005,"long":137.7628125}},{"name":"紀伊國屋書店静岡理工科大学ブックセンター","post":"〒437-0032","address":"静岡県袋井市豊沢２２００－２ 静岡理工科大学内","tel":"0538-31-6231","mapUrl":"https://maps.google.co.jp/maps?q=%e7%b4%80%e4%bc%8a%e5%9c%8b%e5%b1%8b%e6%9b%b8%e5%ba%97%e9%9d%99%e5%b2%a1%e7%90%86%e5%b7%a5%e7%a7%91%e5%a4%a7%e5%ad%a6%e3%83%96%e3%83%83%e3%82%af%e3%82%bb%e3%83%b3%e3%82%bf%e3%83%bc","storeUrl":"https://corp.kinokuniya.co.jp/location/univ/","position":{"lat":34.73831249999999,"long":137.9614375}},{"name":"谷島屋ららぽーと磐田店","post":"〒438-0801","address":"静岡県磐田市高見丘１２００ ららぽーと磐田１Ｆ","tel":"0538-59-0358","mapUrl":"https://maps.google.co.jp/maps?q=%e8%b0%b7%e5%b3%b6%e5%b1%8b%e3%82%89%e3%82%89%e3%81%bd%e3%83%bc%e3%81%a8%e7%a3%90%e7%94%b0%e5%ba%97","storeUrl":"https://www.yajimaya.co.jp/","position":{"lat":34.75031249999999,"long":137.84193750000003}},{"name":"精文館書店本店","post":"〒440-8517","address":"愛知県豊橋市広小路１－６","tel":"0532-54-2345","mapUrl":"https://maps.google.co.jp/maps?q=%e7%b2%be%e6%96%87%e9%a4%a8%e6%9b%b8%e5%ba%97%e6%9c%ac%e5%ba%97","storeUrl":"https://www.seibunkan.co.jp/","position":{"lat":34.764187500000006,"long":137.38706250000007}},{"name":"TSUTAYA ウイングタウン岡崎店","post":"〒444-0814","address":"愛知県岡崎市羽根町小豆坂３","tel":"0564-72-5080","mapUrl":"https://maps.google.co.jp/maps?q=TSUTAYA+%e3%82%a6%e3%82%a4%e3%83%b3%e3%82%b0%e3%82%bf%e3%82%a6%e3%83%b3%e5%b2%a1%e5%b4%8e%e5%ba%97","storeUrl":"https://store-tsutaya.tsite.jp/store/detail?storeId=4321","position":{"lat":34.9235625,"long":137.17481249999997}},{"name":"ジュンク堂書店名古屋店","post":"〒450-0002","address":"愛知県名古屋市中村区名駅３－２５－９ 堀内ビル１Ｆ","tel":"052-589-6321","mapUrl":"https://maps.google.co.jp/maps?q=%e3%82%b8%e3%83%a5%e3%83%b3%e3%82%af%e5%a0%82%e6%9b%b8%e5%ba%97%e5%90%8d%e5%8f%a4%e5%b1%8b%e5%ba%97","storeUrl":"http://honto.jp/store/detail_1570031_14HB320.html","position":{"lat":35.172062499999996,"long":136.88618750000006}},{"name":"三省堂書店名古屋本店","post":"〒450-6608","address":"愛知県名古屋市中村区名駅１－１－３ タカシマヤゲートタワーモール８Ｆ","tel":"052-566-6801","mapUrl":"https://maps.google.co.jp/maps?q=%e4%b8%89%e7%9c%81%e5%a0%82%e6%9b%b8%e5%ba%97%e5%90%8d%e5%8f%a4%e5%b1%8b%e6%9c%ac%e5%ba%97","storeUrl":"https://www.books-sanseido.co.jp/","position":{"lat":35.17218750000001,"long":136.88256250000006}},{"name":"未来屋書店大高店","post":"〒459-8001","address":"愛知県名古屋市緑区大高町字奥平子１－１","tel":"052-624-4061","mapUrl":"https://maps.google.co.jp/maps?q=%e6%9c%aa%e6%9d%a5%e5%b1%8b%e6%9b%b8%e5%ba%97%e5%a4%a7%e9%ab%98%e5%ba%97","storeUrl":"https://www.miraiyashoten.co.jp/store/","position":{"lat":35.06625,"long":136.93375}},{"name":"ジュンク堂書店名古屋栄店","post":"〒460-0004","address":"愛知県名古屋市中区新栄町１丁目１ 明治安田生命名古屋ビル地下１．２階","tel":"052-212-5360","mapUrl":"https://maps.google.co.jp/maps?q=%e3%82%b8%e3%83%a5%e3%83%b3%e3%82%af%e5%a0%82%e6%9b%b8%e5%ba%97%e5%90%8d%e5%8f%a4%e5%b1%8b%e6%a0%84%e5%ba%97","storeUrl":"http://honto.jp/store/detail_1570153_14HB320.html","position":{"lat":35.1694375,"long":136.90968749999996}},{"name":"丸善名古屋本店","post":"〒460-0008","address":"愛知県名古屋市中区栄３－８－１４","tel":"052-238-0320","mapUrl":"https://maps.google.co.jp/maps?q=%e4%b8%b8%e5%96%84%e5%90%8d%e5%8f%a4%e5%b1%8b%e6%9c%ac%e5%ba%97","storeUrl":"http://honto.jp/store/detail_1570138_14HB310.html","position":{"lat":35.16718750000001,"long":136.9056875}},{"name":"未来屋書店ナゴヤドーム店","post":"〒461-0048","address":"愛知県名古屋市東区矢田南４－１０２－３ イオンナゴヤドーム前３階","tel":"052-723-3321","mapUrl":"https://maps.google.co.jp/maps?q=%e6%9c%aa%e6%9d%a5%e5%b1%8b%e6%9b%b8%e5%ba%97%e3%83%8a%e3%82%b4%e3%83%a4%e3%83%89%e3%83%bc%e3%83%a0%e5%ba%97","storeUrl":"https://www.miraiyashoten.co.jp/store/","position":{"lat":35.18718750000001,"long":136.94406250000003}},{"name":"丸善南山大学名古屋売店","post":"〒466-0823","address":"愛知県名古屋市昭和区八雲町７４","tel":"052-838-5566","mapUrl":"https://maps.google.co.jp/maps?q=%e4%b8%b8%e5%96%84%e5%8d%97%e5%b1%b1%e5%a4%a7%e5%ad%a6%e5%90%8d%e5%8f%a4%e5%b1%8b%e5%a3%b2%e5%ba%97","storeUrl":"https://yushodo.maruzen.co.jp/","position":{"lat":35.1501875,"long":136.9640625}},{"name":"三洋堂書店新開橋店","post":"〒467-0856","address":"愛知県名古屋市瑞穂区新開町１８－２２","tel":"052-871-3934","mapUrl":"https://maps.google.co.jp/maps?q=%e4%b8%89%e6%b4%8b%e5%a0%82%e6%9b%b8%e5%ba%97%e6%96%b0%e9%96%8b%e6%a9%8b%e5%ba%97","storeUrl":"https://www.sanyodo.co.jp/","position":{"lat":35.12393749999998,"long":136.91731249999998}},{"name":"ちくさ正文館書店BOOKSHOP","post":"〒468-8502","address":"愛知県名古屋市天白区塩釜口１－５０１ 名城大学天白キャンパス校４号館内","tel":"052-833-8215","mapUrl":"https://maps.google.co.jp/maps?q=%e3%81%a1%e3%81%8f%e3%81%95%e6%ad%a3%e6%96%87%e9%a4%a8%e6%9b%b8%e5%ba%97BOOKSHOP","storeUrl":"http://chikusashobunkan.jimdo.com/%E4%BC%9A%E7%A4%BE%E6%A6%82%E8%A6%81/","position":{"lat":35.13556249999999,"long":136.9754375}},{"name":"紀伊國屋書店愛工大ブックセンター","post":"〒470-0356","address":"愛知県豊田市八草町八千草１２４７ 愛知工業大学内","tel":"0565-43-1025","mapUrl":"https://maps.google.co.jp/maps?q=%e7%b4%80%e4%bc%8a%e5%9c%8b%e5%b1%8b%e6%9b%b8%e5%ba%97%e6%84%9b%e5%b7%a5%e5%a4%a7%e3%83%96%e3%83%83%e3%82%af%e3%82%bb%e3%83%b3%e3%82%bf%e3%83%bc","storeUrl":"https://corp.kinokuniya.co.jp/location/univ/","position":{"lat":35.1834375,"long":137.1130625}},{"name":"精文館書店新豊田店","post":"〒471-0864","address":"愛知県豊田市広路町１－１５","tel":"0565-33-3322","mapUrl":"https://maps.google.co.jp/maps?q=%e7%b2%be%e6%96%87%e9%a4%a8%e6%9b%b8%e5%ba%97%e6%96%b0%e8%b1%8a%e7%94%b0%e5%ba%97","storeUrl":"https://www.seibunkan.co.jp/","position":{"lat":35.078562500000004,"long":137.1609375}},{"name":"紀伊國屋書店名古屋空港店","post":"〒480-0288","address":"愛知県西春日井郡豊山町豊場林先１－８ エアポートウォーク名古屋４０１","tel":"0568-39-3851","mapUrl":"https://maps.google.co.jp/maps?q=%e7%b4%80%e4%bc%8a%e5%9c%8b%e5%b1%8b%e6%9b%b8%e5%ba%97%e5%90%8d%e5%8f%a4%e5%b1%8b%e7%a9%ba%e6%b8%af%e5%ba%97","storeUrl":"https://www.kinokuniya.co.jp/","position":{"lat":35.2459375,"long":136.92481249999997}},{"name":"未来屋書店長久手店","post":"〒480-1100","address":"愛知県長久手市長久手中央土地区画整理事業地内 ５－１０－１１街区　イオンモール長久手４Ｆ","tel":"0561-64-5722","mapUrl":"https://maps.google.co.jp/maps?q=%e6%9c%aa%e6%9d%a5%e5%b1%8b%e6%9b%b8%e5%ba%97%e9%95%b7%e4%b9%85%e6%89%8b%e5%ba%97","storeUrl":"https://www.miraiyashoten.co.jp/store/","position":{"lat":35.184062499999996,"long":137.0485625}},{"name":"丸善中部大学売店","post":"〒487-0027","address":"愛知県春日井市松本町１２００","tel":"0568-51-1204","mapUrl":"https://maps.google.co.jp/maps?q=%e4%b8%b8%e5%96%84%e4%b8%ad%e9%83%a8%e5%a4%a7%e5%ad%a6%e5%a3%b2%e5%ba%97","storeUrl":"https://yushodo.maruzen.co.jp/","position":{"lat":35.27443749999999,"long":137.0128125}},{"name":"精文館書店尾張一宮店","post":"〒491-0847","address":"愛知県一宮市大和町宮地花池出町裏６４","tel":"0586-26-1660","mapUrl":"https://maps.google.co.jp/maps?q=%e7%b2%be%e6%96%87%e9%a4%a8%e6%9b%b8%e5%ba%97%e5%b0%be%e5%bc%b5%e4%b8%80%e5%ae%ae%e5%ba%97","storeUrl":"https://www.seibunkan.co.jp/","position":{"lat":35.28693749999999,"long":136.80643750000002}},{"name":"宮脇書店四日市本店","post":"〒510-0075","address":"三重県四日市市安島１－３－３１ ララスクエア四日市４Ｆ","tel":"0593-59-5910","mapUrl":"https://maps.google.co.jp/maps?q=%e5%ae%ae%e8%84%87%e6%9b%b8%e5%ba%97%e5%9b%9b%e6%97%a5%e5%b8%82%e6%9c%ac%e5%ba%97","storeUrl":"https://www.miyawakishoten.com/","position":{"lat":34.968312499999996,"long":136.61656250000004}},{"name":"丸善四日市店","post":"〒510-8585","address":"三重県四日市市諏訪栄町７－３４ 近鉄百貨店四日市店　Ｂ１Ｆ","tel":"059-359-2340","mapUrl":"https://maps.google.co.jp/maps?q=%e4%b8%b8%e5%96%84%e5%9b%9b%e6%97%a5%e5%b8%82%e5%ba%97","storeUrl":"http://honto.jp/store/detail_1570117_14HB310.html","position":{"lat":34.96718750000001,"long":136.61868750000002}},{"name":"未来屋書店鈴鹿店","post":"〒513-0834","address":"三重県鈴鹿市庄野羽山４－１－２ イオンモール鈴鹿２階","tel":"059-375-0617","mapUrl":"https://maps.google.co.jp/maps?q=%e6%9c%aa%e6%9d%a5%e5%b1%8b%e6%9b%b8%e5%ba%97%e9%88%b4%e9%b9%bf%e5%ba%97","storeUrl":"https://www.miraiyashoten.co.jp/store/","position":{"lat":34.87181249999999,"long":136.5315625}},{"name":"丸善龍谷大学瀬田売店","post":"〒520-2123","address":"滋賀県大津市瀬田大江町横谷１－５","tel":"077-543-5135","mapUrl":"https://maps.google.co.jp/maps?q=%e4%b8%b8%e5%96%84%e9%be%8d%e8%b0%b7%e5%a4%a7%e5%ad%a6%e7%80%ac%e7%94%b0%e5%a3%b2%e5%ba%97","storeUrl":"https://yushodo.maruzen.co.jp/","position":{"lat":34.963750000000005,"long":135.93625}},{"name":"大垣書店大津一里山店","post":"〒520-2153","address":"滋賀県大津市一里山７－１－１ フォレオ大津一里山１Ｆ","tel":"077-547-1020","mapUrl":"https://maps.google.co.jp/maps?q=%e5%a4%a7%e5%9e%a3%e6%9b%b8%e5%ba%97%e5%a4%a7%e6%b4%a5%e4%b8%80%e9%87%8c%e5%b1%b1%e5%ba%97","storeUrl":"https://www.books-ogaki.co.jp/","position":{"lat":34.9741875,"long":135.9333125}},{"name":"ジュンク堂書店滋賀草津店","post":"〒525-0032","address":"滋賀県草津市大路１－１－１ ガーデンシティ草津Ｂ１Ｆ","tel":"077-569-5553","mapUrl":"https://maps.google.co.jp/maps?q=%e3%82%b8%e3%83%a5%e3%83%b3%e3%82%af%e5%a0%82%e6%9b%b8%e5%ba%97%e6%bb%8b%e8%b3%80%e8%8d%89%e6%b4%a5%e5%ba%97","storeUrl":"http://honto.jp/store/detail_1570133_14HB320.html","position":{"lat":35.021187499999996,"long":135.9614375}},{"name":"喜久屋書店草津店","post":"〒525-0067","address":"滋賀県草津市新浜町３００ イオンモール草津２Ｆ","tel":"077-516-1118","mapUrl":"https://maps.google.co.jp/maps?q=%e5%96%9c%e4%b9%85%e5%b1%8b%e6%9b%b8%e5%ba%97%e8%8d%89%e6%b4%a5%e5%ba%97","storeUrl":"https://www.blg.co.jp/kikuya/","position":{"lat":34.997812499999995,"long":135.91243749999995}},{"name":"大垣書店京都本店","post":"〒600-8009","address":"京都府京都市下京区四条通り室町東入函谷鉾町７８ ＳＵＩＮＡ室町１Ｆ","tel":"075-746-2211","mapUrl":"https://maps.google.co.jp/maps?q=%e5%a4%a7%e5%9e%a3%e6%9b%b8%e5%ba%97%e4%ba%ac%e9%83%bd%e6%9c%ac%e5%ba%97","storeUrl":"https://www.books-ogaki.co.jp/","position":{"lat":35.0030625,"long":135.75856249999998}},{"name":"大垣書店ヨドバシ京都店","post":"〒600-8216","address":"京都府京都市下京区東塩小路町５９０－２ ヨドバシ京都ビル６Ｆ","tel":"075-371-1700","mapUrl":"https://maps.google.co.jp/maps?q=%e5%a4%a7%e5%9e%a3%e6%9b%b8%e5%ba%97%e3%83%a8%e3%83%89%e3%83%90%e3%82%b7%e4%ba%ac%e9%83%bd%e5%ba%97","storeUrl":"https://www.books-ogaki.co.jp/","position":{"lat":34.985812499999994,"long":135.75881250000003}},{"name":"大垣書店イオンモール京都桂川店","post":"〒601-8211","address":"京都府京都市南区久世高田町３７６番 イオンモール京都桂川１Ｆ","tel":"075-925-1717","mapUrl":"https://maps.google.co.jp/maps?q=%e5%a4%a7%e5%9e%a3%e6%9b%b8%e5%ba%97%e3%82%a4%e3%82%aa%e3%83%b3%e3%83%a2%e3%83%bc%e3%83%ab%e4%ba%ac%e9%83%bd%e6%a1%82%e5%b7%9d%e5%ba%97","storeUrl":"https://www.books-ogaki.co.jp/","position":{"lat":34.96356250000001,"long":135.70693749999998}},{"name":"大垣書店イオンモールＫＹＯＴＯ店","post":"〒601-8417","address":"京都府京都市南区八条通西洞院下ル九条鳥居口町 イオンモールＫＹＯＴＯ　Ｋａｅｄｅ館２Ｆ","tel":"075-692-3331","mapUrl":"https://maps.google.co.jp/maps?q=%e5%a4%a7%e5%9e%a3%e6%9b%b8%e5%ba%97%e3%82%a4%e3%82%aa%e3%83%b3%e3%83%a2%e3%83%bc%e3%83%ab%ef%bc%ab%ef%bc%b9%ef%bc%af%ef%bc%b4%ef%bc%af%e5%ba%97","storeUrl":"https://www.books-ogaki.co.jp/","position":{"lat":34.9826875,"long":135.75456250000002}},{"name":"紀伊國屋書店京都産業大学ブックセンター","post":"〒603-8555","address":"京都府京都市北区上賀茂本山 京都産業大学売店","tel":"075-708-1356","mapUrl":"https://maps.google.co.jp/maps?q=%e7%b4%80%e4%bc%8a%e5%9c%8b%e5%b1%8b%e6%9b%b8%e5%ba%97%e4%ba%ac%e9%83%bd%e7%94%a3%e6%a5%ad%e5%a4%a7%e5%ad%a6%e3%83%96%e3%83%83%e3%82%af%e3%82%bb%e3%83%b3%e3%82%bf%e3%83%bc","storeUrl":"https://corp.kinokuniya.co.jp/location/univ/","position":{"lat":35.070562499999994,"long":135.7571875}},{"name":"丸善京都本店","post":"〒604-8031","address":"京都府京都市中京区河原町通三条下ル２丁目山崎町 ２５１　京都ＢＡＬ店内Ｂ１Ｆ～Ｂ２Ｆ","tel":"075-253-1599","mapUrl":"https://maps.google.co.jp/maps?q=%e4%b8%b8%e5%96%84%e4%ba%ac%e9%83%bd%e6%9c%ac%e5%ba%97","storeUrl":"http://honto.jp/store/detail_1570144_14HB310.html","position":{"lat":35.00693749999999,"long":135.76943749999998}},{"name":"アカデミアけいはんな店","post":"〒619-0238","address":"京都府相楽郡精華町精華台９－２－４ ユータウンけいはんな西館１Ｆ","tel":"077-498-4053","mapUrl":"https://maps.google.co.jp/maps?q=%e3%82%a2%e3%82%ab%e3%83%87%e3%83%9f%e3%82%a2%e3%81%91%e3%81%84%e3%81%af%e3%82%93%e3%81%aa%e5%ba%97","storeUrl":"https://www.kumabook.com/","position":{"lat":34.74668750000001,"long":135.7706875}},{"name":"ジュンク堂書店大阪本店","post":"〒530-0003","address":"大阪府大阪市北区堂島１－６－２０ 堂島アバンザ３Ｆ","tel":"06-4799-1090","mapUrl":"https://maps.google.co.jp/maps?q=%e3%82%b8%e3%83%a5%e3%83%b3%e3%82%af%e5%a0%82%e6%9b%b8%e5%ba%97%e5%a4%a7%e9%98%aa%e6%9c%ac%e5%ba%97","storeUrl":"http://honto.jp/store/detail_1570022_14HB320.html","position":{"lat":34.69681250000001,"long":135.49631250000004}},{"name":"ヨドバシカメラ梅田店","post":"〒530-0011","address":"大阪府大阪市北区大深町１－１","tel":"06-4802-1010","mapUrl":"https://maps.google.co.jp/maps?q=%e3%83%a8%e3%83%89%e3%83%90%e3%82%b7%e3%82%ab%e3%83%a1%e3%83%a9%e6%a2%85%e7%94%b0%e5%ba%97","storeUrl":"https://www.yodobashi.com/","position":{"lat":34.69731250000001,"long":135.48681250000004}},{"name":"紀伊國屋書店グランフロント大阪店","post":"〒530-0011","address":"大阪府大阪市北区大深町４－２０ グランフロント大阪店ショップ＆レストラン南館６Ｆ","tel":"06-7730-8451","mapUrl":"https://maps.google.co.jp/maps?q=%e7%b4%80%e4%bc%8a%e5%9c%8b%e5%b1%8b%e6%9b%b8%e5%ba%97%e3%82%b0%e3%83%a9%e3%83%b3%e3%83%95%e3%83%ad%e3%83%b3%e3%83%88%e5%a4%a7%e9%98%aa%e5%ba%97","storeUrl":"https://www.kinokuniya.co.jp/","position":{"lat":34.703937499999995,"long":135.4949375}},{"name":"紀伊國屋書店梅田本店","post":"〒530-0012","address":"大阪府大阪市北区芝田１－１－３ 阪急三番街","tel":"06-6372-5821","mapUrl":"https://maps.google.co.jp/maps?q=%e7%b4%80%e4%bc%8a%e5%9c%8b%e5%b1%8b%e6%9b%b8%e5%ba%97%e6%a2%85%e7%94%b0%e6%9c%ac%e5%ba%97","storeUrl":"https://www.kinokuniya.co.jp/","position":{"lat":34.70593749999999,"long":135.49843750000002}},{"name":"MARUZEN＆ジュンク堂書店梅田店","post":"〒530-0013","address":"大阪府大阪市北区茶屋町７－２０ チャスカ茶屋町Ｂ１Ｆ～７Ｆ","tel":"06-6292-7383","mapUrl":"https://maps.google.co.jp/maps?q=MARUZEN%ef%bc%86%e3%82%b8%e3%83%a5%e3%83%b3%e3%82%af%e5%a0%82%e6%9b%b8%e5%ba%97%e6%a2%85%e7%94%b0%e5%ba%97","storeUrl":"http://honto.jp/store/detail_1570065_14HB320.html","position":{"lat":34.7074375,"long":135.5000625}},{"name":"ジュンク堂書店天満橋店","post":"〒540-0032","address":"大阪府大阪市中央区天満橋京町１－１ 京阪シティモール７Ｆ","tel":"06-6920-3730","mapUrl":"https://maps.google.co.jp/maps?q=%e3%82%b8%e3%83%a5%e3%83%b3%e3%82%af%e5%a0%82%e6%9b%b8%e5%ba%97%e5%a4%a9%e6%ba%80%e6%a9%8b%e5%ba%97","storeUrl":"http://honto.jp/store/detail_1570021_14HB320.html","position":{"lat":34.69018750000001,"long":135.51656250000002}},{"name":"紀伊國屋書店本町店","post":"〒541-0052","address":"大阪府大阪市中央区安土町２－３－１３ 大阪国際ビルディング１Ｆ","tel":"06-4705-4556","mapUrl":"https://maps.google.co.jp/maps?q=%e7%b4%80%e4%bc%8a%e5%9c%8b%e5%b1%8b%e6%9b%b8%e5%ba%97%e6%9c%ac%e7%94%ba%e5%ba%97","storeUrl":"https://www.kinokuniya.co.jp/","position":{"lat":34.6839375,"long":135.5050625}},{"name":"旭屋書店なんばCITY店","post":"〒542-0076","address":"大阪府大阪市中央区難波５－１－６０ なんばＣＩＴＹ　Ｂ２","tel":"06-6644-2551","mapUrl":"https://maps.google.co.jp/maps?q=%e6%97%ad%e5%b1%8b%e6%9b%b8%e5%ba%97%e3%81%aa%e3%82%93%e3%81%b0CITY%e5%ba%97","storeUrl":"https://www.asahiya.com/","position":{"lat":34.66256250000001,"long":135.5025625}},{"name":"喜久屋書店阿倍野店","post":"〒545-0052","address":"大阪府大阪市阿倍野区阿倍野筋１－５－３１ アポロビル２Ｆ","tel":"06-6634-8606","mapUrl":"https://maps.google.co.jp/maps?q=%e5%96%9c%e4%b9%85%e5%b1%8b%e6%9b%b8%e5%ba%97%e9%98%bf%e5%80%8d%e9%87%8e%e5%ba%97","storeUrl":"https://www.blg.co.jp/kikuya/","position":{"lat":34.64656249999999,"long":135.5116875}},{"name":"ジュンク堂書店近鉄あべのハルカス店","post":"〒545-8545","address":"大阪府大阪市阿倍野区阿倍野筋１－１－４３ あべのハルカス近鉄本店ウイング館７Ｆ・８Ｆ","tel":"06-6626-2151","mapUrl":"https://maps.google.co.jp/maps?q=%e3%82%b8%e3%83%a5%e3%83%b3%e3%82%af%e5%a0%82%e6%9b%b8%e5%ba%97%e8%bf%91%e9%89%84%e3%81%82%e3%81%b9%e3%81%ae%e3%83%8f%e3%83%ab%e3%82%ab%e3%82%b9%e5%ba%97","storeUrl":"http://honto.jp/store/detail_1570127_14HB320.html","position":{"lat":34.64593749999999,"long":135.5139375}},{"name":"ジュンク堂書店難波店","post":"〒556-0017","address":"大阪府大阪市浪速区湊町１－２－３ マルイト難波ビル","tel":"06-4396-4771","mapUrl":"https://maps.google.co.jp/maps?q=%e3%82%b8%e3%83%a5%e3%83%b3%e3%82%af%e5%a0%82%e6%9b%b8%e5%ba%97%e9%9b%a3%e6%b3%a2%e5%ba%97","storeUrl":"http://honto.jp/store/detail_1570052_14HB320.html","position":{"lat":34.66668750000001,"long":135.49618750000002}},{"name":"田村書店千里中央店","post":"〒560-0082","address":"大阪府豊中市新千里東町１－３－３２１ せんちゅうパル３Ｆ・４Ｆ","tel":"06-6831-5657","mapUrl":"https://maps.google.co.jp/maps?q=%e7%94%b0%e6%9d%91%e6%9b%b8%e5%ba%97%e5%8d%83%e9%87%8c%e4%b8%ad%e5%a4%ae%e5%ba%97","storeUrl":"https://www.senrichuou.com/shop/%E7%94%B0%E6%9D%91%E6%9B%B8%E5%BA%97/","position":{"lat":34.809687499999995,"long":135.4949375}},{"name":"TSUTAYA ららぽーとEXPOCITY店","post":"〒565-0826","address":"大阪府吹田市千里万博公園２－１ ららぽーとＥＸＰＯＣＩＴＹ　２Ｆ","tel":"06-4864-8270","mapUrl":"https://maps.google.co.jp/maps?q=TSUTAYA+%e3%82%89%e3%82%89%e3%81%bd%e3%83%bc%e3%81%a8EXPOCITY%e5%ba%97","storeUrl":"https://store-tsutaya.tsite.jp/storelocator/detail/5136.html","position":{"lat":34.8054375,"long":135.53443750000002}},{"name":"関西大学生協吹田店","post":"〒565-0842","address":"大阪府吹田市千里山東３－１０－１","tel":"06-6368-7548","mapUrl":"https://maps.google.co.jp/maps?q=%e9%96%a2%e8%a5%bf%e5%a4%a7%e5%ad%a6%e7%94%9f%e5%8d%94%e5%90%b9%e7%94%b0%e5%ba%97","storeUrl":"https://www.kandai.ne.jp/index.html","position":{"lat":34.77381249999999,"long":135.5111875}},{"name":"関西大学生協高槻店","post":"〒569-1052","address":"大阪府高槻市霊仙寺町２－１－１","tel":"072-699-0275","mapUrl":"https://maps.google.co.jp/maps?q=%e9%96%a2%e8%a5%bf%e5%a4%a7%e5%ad%a6%e7%94%9f%e5%8d%94%e9%ab%98%e6%a7%bb%e5%ba%97","storeUrl":"https://www.kandai.ne.jp/index.html","position":{"lat":34.87356249999999,"long":135.57968749999998}},{"name":"未来屋書店大日店","post":"〒570-0016","address":"大阪府守口市大日東町１－１８ イオン大日ショッピングセンター３Ｆ","tel":"06-6900-6030","mapUrl":"https://maps.google.co.jp/maps?q=%e6%9c%aa%e6%9d%a5%e5%b1%8b%e6%9b%b8%e5%ba%97%e5%a4%a7%e6%97%a5%e5%ba%97","storeUrl":"https://www.miraiyashoten.co.jp/store/","position":{"lat":34.7494375,"long":135.58056249999998}},{"name":"丸善高島屋堺店","post":"〒590-0028","address":"大阪府堺市堺区三国ヶ丘御幸通５９ 堺高島屋４階","tel":"072-225-0930","mapUrl":"https://maps.google.co.jp/maps?q=%e4%b8%b8%e5%96%84%e9%ab%98%e5%b3%b6%e5%b1%8b%e5%a0%ba%e5%ba%97","storeUrl":"https://honto.jp/store/detail_1570202_14HB310.html","position":{"lat":34.576562499999994,"long":135.48481250000003}},{"name":"未来屋書店りんくう泉南店","post":"〒590-0535","address":"大阪府泉南市りんくう南浜３－１２ イオンモール泉南２Ｆ","tel":"072-482-0517","mapUrl":"https://maps.google.co.jp/maps?q=%e6%9c%aa%e6%9d%a5%e5%b1%8b%e6%9b%b8%e5%ba%97%e3%82%8a%e3%82%93%e3%81%8f%e3%81%86%e6%b3%89%e5%8d%97%e5%ba%97","storeUrl":"https://www.miraiyashoten.co.jp/store/","position":{"lat":34.38081249999999,"long":135.26793750000002}},{"name":"ジュンク堂書店三宮店","post":"〒650-0021","address":"兵庫県神戸市中央区三宮町１－６－１８","tel":"078-392-1001","mapUrl":"https://maps.google.co.jp/maps?q=%e3%82%b8%e3%83%a5%e3%83%b3%e3%82%af%e5%a0%82%e6%9b%b8%e5%ba%97%e4%b8%89%e5%ae%ae%e5%ba%97","storeUrl":"http://honto.jp/store/detail_1570001_14HB320.html","position":{"lat":34.69131250000001,"long":135.1923125}},{"name":"大垣書店ハーバーランドumie店","post":"〒650-0044","address":"兵庫県神戸市中央区東川崎町１ ｕｍｉｅ　ＮＯＲＴＨ　ＭＡＬＬ５階","tel":"078-382-7112","mapUrl":"https://maps.google.co.jp/maps?q=%e5%a4%a7%e5%9e%a3%e6%9b%b8%e5%ba%97%e3%83%8f%e3%83%bc%e3%83%90%e3%83%bc%e3%83%a9%e3%83%b3%e3%83%89umie%e5%ba%97","storeUrl":"https://www.books-ogaki.co.jp/","position":{"lat":34.67981250000001,"long":135.18218749999994}},{"name":"ジュンク堂書店三宮駅前店","post":"〒651-0096","address":"兵庫県神戸市中央区雲井通６－１－１５ サンシティビル７Ｆ","tel":"078-252-0777","mapUrl":"https://maps.google.co.jp/maps?q=%e3%82%b8%e3%83%a5%e3%83%b3%e3%82%af%e5%a0%82%e6%9b%b8%e5%ba%97%e4%b8%89%e5%ae%ae%e9%a7%85%e5%89%8d%e5%ba%97","storeUrl":"http://honto.jp/store/detail_1570002_14HB320.html","position":{"lat":34.694687500000015,"long":135.1966875}},{"name":"喜久屋書店北神戸店","post":"〒651-1515","address":"兵庫県神戸市北区上津台８－１－１ イオンモール神戸北２Ｆ","tel":"078-983-3755","mapUrl":"https://maps.google.co.jp/maps?q=%e5%96%9c%e4%b9%85%e5%b1%8b%e6%9b%b8%e5%ba%97%e5%8c%97%e7%a5%9e%e6%88%b8%e5%ba%97","storeUrl":"https://www.blg.co.jp/kikuya/","position":{"lat":34.86093749999999,"long":135.1946875}},{"name":"TSUTAYA 尼崎つかしん店","post":"〒661-0001","address":"兵庫県尼崎市塚口本町４－８－１ グンゼタウンセンターつかしんにしまち２Ｆ","tel":"06-6427-7705","mapUrl":"https://maps.google.co.jp/maps?q=TSUTAYA+%e5%b0%bc%e5%b4%8e%e3%81%a4%e3%81%8b%e3%81%97%e3%82%93%e5%ba%97","storeUrl":"","position":{"lat":34.7608125,"long":135.4176875}},{"name":"ジュンク堂書店西宮店","post":"〒663-8035","address":"兵庫県西宮市北口町１－１ アクタ西宮西館４Ｆ","tel":"079-868-6300","mapUrl":"https://maps.google.co.jp/maps?q=%e3%82%b8%e3%83%a5%e3%83%b3%e3%82%af%e5%a0%82%e6%9b%b8%e5%ba%97%e8%a5%bf%e5%ae%ae%e5%ba%97","storeUrl":"http://honto.jp/store/detail_1570027_14HB320.html","position":{"lat":34.74731250000001,"long":135.35806250000002}},{"name":"ブックファースト阪急西宮ガーデンズ店","post":"〒663-8204","address":"兵庫県西宮市高松町１４－２－４０５ 阪急西宮ガーデンズ４Ｆ","tel":"079-862-6103","mapUrl":"https://maps.google.co.jp/maps?q=%e3%83%96%e3%83%83%e3%82%af%e3%83%95%e3%82%a1%e3%83%bc%e3%82%b9%e3%83%88%e9%98%aa%e6%80%a5%e8%a5%bf%e5%ae%ae%e3%82%ac%e3%83%bc%e3%83%87%e3%83%b3%e3%82%ba%e5%ba%97","storeUrl":"http://www.book1st.net/","position":{"lat":34.7439375,"long":135.35981250000003}},{"name":"ジュンク堂書店姫路店","post":"〒670-0914","address":"兵庫県姫路市豆腐町２２２ プリエ姫路２Ｆ","tel":"079-221-8280","mapUrl":"https://maps.google.co.jp/maps?q=%e3%82%b8%e3%83%a5%e3%83%b3%e3%82%af%e5%a0%82%e6%9b%b8%e5%ba%97%e5%a7%ab%e8%b7%af%e5%ba%97","storeUrl":"http://honto.jp/store/detail_1570026_14HB320.html","position":{"lat":34.826562499999994,"long":134.69018750000004}},{"name":"ジュンク堂書店明石店","post":"〒673-0891","address":"兵庫県明石市大明石１－６－１ パピオスあかし２階","tel":"078-918-6670","mapUrl":"https://maps.google.co.jp/maps?q=%e3%82%b8%e3%83%a5%e3%83%b3%e3%82%af%e5%a0%82%e6%9b%b8%e5%ba%97%e6%98%8e%e7%9f%b3%e5%ba%97","storeUrl":"https://honto.jp/store/detail_1570165_14HB320.html","position":{"lat":34.6479375,"long":134.99206250000003}},{"name":"紀伊國屋書店加古川店","post":"〒675-0065","address":"兵庫県加古川市加古川町篠原町三ツ升２１－８ ヤマトヤシキ加古川店６Ｆ","tel":"079-427-3311","mapUrl":"https://maps.google.co.jp/maps?q=%e7%b4%80%e4%bc%8a%e5%9c%8b%e5%b1%8b%e6%9b%b8%e5%ba%97%e5%8a%a0%e5%8f%a4%e5%b7%9d%e5%ba%97","storeUrl":"https://www.kinokuniya.co.jp/","position":{"lat":34.7661875,"long":134.83893750000004}},{"name":"ジュンク堂書店奈良店","post":"〒631-0821","address":"奈良県奈良市西大寺東町２－４－１ ならファミリー専門店街４階","tel":"0742-36-0801","mapUrl":"https://maps.google.co.jp/maps?q=%e3%82%b8%e3%83%a5%e3%83%b3%e3%82%af%e5%a0%82%e6%9b%b8%e5%ba%97%e5%a5%88%e8%89%af%e5%ba%97","storeUrl":"https://honto.jp/store/detail.html?shcd=70160&shgcd=HB320","position":{"lat":34.695062500000006,"long":135.78506250000004}},{"name":"喜久屋書店橿原店","post":"〒634-0837","address":"奈良県橿原市曲川町７－２０－１ イオンモール橿原アルル３Ｆ","tel":"0744-20-3151","mapUrl":"https://maps.google.co.jp/maps?q=%e5%96%9c%e4%b9%85%e5%b1%8b%e6%9b%b8%e5%ba%97%e6%a9%bf%e5%8e%9f%e5%ba%97","storeUrl":"https://www.blg.co.jp/kikuya/","position":{"lat":34.506187499999996,"long":135.76243749999998}},{"name":"喜久屋書店大和郡山店","post":"〒639-1101","address":"奈良県大和郡山市下三橋町７４１ イオンモール大和郡山２Ｆ","tel":"0743-55-2200","mapUrl":"https://maps.google.co.jp/maps?q=%e5%96%9c%e4%b9%85%e5%b1%8b%e6%9b%b8%e5%ba%97%e5%a4%a7%e5%92%8c%e9%83%a1%e5%b1%b1%e5%ba%97","storeUrl":"https://www.blg.co.jp/kikuya/","position":{"lat":34.65106250000001,"long":135.80231250000003}},{"name":"TSUTAYA WAYガーデンパーク和歌山店","post":"〒640-8421","address":"和歌山県和歌山市松江字向鵜ノ島１４６９－１","tel":"073-480-5900","mapUrl":"https://maps.google.co.jp/maps?q=TSUTAYA+WAY%e3%82%ac%e3%83%bc%e3%83%87%e3%83%b3%e3%83%91%e3%83%bc%e3%82%af%e5%92%8c%e6%ad%8c%e5%b1%b1%e5%ba%97","storeUrl":"https://store-tsutaya.tsite.jp/store/detail?storeId=6000","position":{"lat":34.238749999999996,"long":135.12875}},{"name":"今井書店吉成店","post":"〒680-0874","address":"鳥取県鳥取市叶３１０","tel":"085-751-7020","mapUrl":"https://maps.google.co.jp/maps?q=%e4%bb%8a%e4%ba%95%e6%9b%b8%e5%ba%97%e5%90%89%e6%88%90%e5%ba%97","storeUrl":"https://www.imaibooks.co.jp/book/","position":{"lat":35.4764375,"long":134.21806249999997}},{"name":"本の学校 今井ブックセンター","post":"〒683-0801","address":"鳥取県米子市新開２－３－１０","tel":"085-931-5000","mapUrl":"https://maps.google.co.jp/maps?q=%e6%9c%ac%e3%81%ae%e5%ad%a6%e6%a0%a1+%e4%bb%8a%e4%ba%95%e3%83%96%e3%83%83%e3%82%af%e3%82%bb%e3%83%b3%e3%82%bf%e3%83%bc","storeUrl":"https://www.imaibooks.co.jp/book/","position":{"lat":35.4541875,"long":133.34781250000003}},{"name":"丸善岡山シンフォニービル店","post":"〒700-0822","address":"岡山県岡山市北区表町１－５－１","tel":"086-233-4640","mapUrl":"https://maps.google.co.jp/maps?q=%e4%b8%b8%e5%96%84%e5%b2%a1%e5%b1%b1%e3%82%b7%e3%83%b3%e3%83%95%e3%82%a9%e3%83%8b%e3%83%bc%e3%83%93%e3%83%ab%e5%ba%97","storeUrl":"http://honto.jp/store/detail_1576960_14HB310.html","position":{"lat":34.665062500000005,"long":133.92993749999994}},{"name":"啓文社岡山本店","post":"〒700-0973","address":"岡山県岡山市北区下中野３７７－１","tel":"086-805-1123","mapUrl":"https://maps.google.co.jp/maps?q=%e5%95%93%e6%96%87%e7%a4%be%e5%b2%a1%e5%b1%b1%e6%9c%ac%e5%ba%97","storeUrl":"https://keibunsha.net/","position":{"lat":34.638312499999984,"long":133.9051875}},{"name":"宮脇書店岡山本店","post":"〒700-0975","address":"岡山県岡山市北区今３－２３－１０３","tel":"086-242-2188","mapUrl":"https://maps.google.co.jp/maps?q=%e5%ae%ae%e8%84%87%e6%9b%b8%e5%ba%97%e5%b2%a1%e5%b1%b1%e6%9c%ac%e5%ba%97","storeUrl":"https://www.miyawakishoten.com/","position":{"lat":34.64643749999999,"long":133.89231250000006}},{"name":"喜久屋書店倉敷店","post":"〒710-0802","address":"岡山県倉敷市水江１ イオン倉敷ショッピングセンター２Ｆ","tel":"086-430-5450","mapUrl":"https://maps.google.co.jp/maps?q=%e5%96%9c%e4%b9%85%e5%b1%8b%e6%9b%b8%e5%ba%97%e5%80%89%e6%95%b7%e5%ba%97","storeUrl":"https://www.blg.co.jp/kikuya/","position":{"lat":34.60318749999999,"long":133.74618750000002}},{"name":"啓文社福山ポートプラザ店","post":"〒720-8523","address":"広島県福山市入船町３－１－２５ 天満屋ハピータウン１Ｆ","tel":"084-971-1211","mapUrl":"https://maps.google.co.jp/maps?q=%e5%95%93%e6%96%87%e7%a4%be%e7%a6%8f%e5%b1%b1%e3%83%9d%e3%83%bc%e3%83%88%e3%83%97%e3%83%a9%e3%82%b6%e5%ba%97","storeUrl":"https://keibunsha.net/","position":{"lat":34.486937499999996,"long":133.37706250000002}},{"name":"フタバ図書ALTI福山本店","post":"〒721-0961","address":"広島県福山市明神町１－１４－２０","tel":"084-973-8780","mapUrl":"https://maps.google.co.jp/maps?q=%e3%83%95%e3%82%bf%e3%83%90%e5%9b%b3%e6%9b%b8ALTI%e7%a6%8f%e5%b1%b1%e6%9c%ac%e5%ba%97","storeUrl":"https://www.futabatosho.co.jp/","position":{"lat":34.4896875,"long":133.39543750000007}},{"name":"紀伊國屋書店広島店","post":"〒730-0011","address":"広島県広島市中区基町６－２７ 広島センタービル６Ｆ","tel":"082-225-3232","mapUrl":"https://maps.google.co.jp/maps?q=%e7%b4%80%e4%bc%8a%e5%9c%8b%e5%b1%8b%e6%9b%b8%e5%ba%97%e5%ba%83%e5%b3%b6%e5%ba%97","storeUrl":"https://www.kinokuniya.co.jp/","position":{"lat":34.39706249999999,"long":132.45718749999997}},{"name":"丸善広島店","post":"〒730-0021","address":"広島県広島市中区胡町５－２２ 天満屋広島八丁堀店７・８Ｆ","tel":"082-504-6210","mapUrl":"https://maps.google.co.jp/maps?q=%e4%b8%b8%e5%96%84%e5%ba%83%e5%b3%b6%e5%ba%97","storeUrl":"http://honto.jp/store/detail_1570062_14HB310.html","position":{"lat":34.393187499999996,"long":132.46381250000002}},{"name":"ジュンク堂書店広島駅前店","post":"〒732-0822","address":"広島県広島市南区松原町９－１ 福屋広島駅前店１０Ｆ","tel":"082-568-3000","mapUrl":"https://maps.google.co.jp/maps?q=%e3%82%b8%e3%83%a5%e3%83%b3%e3%82%af%e5%a0%82%e6%9b%b8%e5%ba%97%e5%ba%83%e5%b3%b6%e9%a7%85%e5%89%8d%e5%ba%97","storeUrl":"http://honto.jp/store/detail_1570023_14HB320.html","position":{"lat":34.39643749999999,"long":132.47368749999998}},{"name":"フタバ図書アルパーク店","post":"〒733-0863","address":"広島県広島市西区草津南４－７－１","tel":"082-270-5730","mapUrl":"https://maps.google.co.jp/maps?q=%e3%83%95%e3%82%bf%e3%83%90%e5%9b%b3%e6%9b%b8%e3%82%a2%e3%83%ab%e3%83%91%e3%83%bc%e3%82%af%e5%ba%97","storeUrl":"https://www.futabatosho.co.jp/","position":{"lat":34.378187499999996,"long":132.40056249999998}},{"name":"紀伊國屋書店近畿大学工学部ブックセンター","post":"〒739-2116","address":"広島県東広島市高屋うめの辺１ 近畿大学工学部　Ｂ館","tel":"082-434-6884","mapUrl":"https://maps.google.co.jp/maps?q=%e7%b4%80%e4%bc%8a%e5%9c%8b%e5%b1%8b%e6%9b%b8%e5%ba%97%e8%bf%91%e7%95%bf%e5%a4%a7%e5%ad%a6%e5%b7%a5%e5%ad%a6%e9%83%a8%e3%83%96%e3%83%83%e3%82%af%e3%82%bb%e3%83%b3%e3%82%bf%e3%83%bc","storeUrl":"https://corp.kinokuniya.co.jp/location/univ/","position":{"lat":34.45881249999999,"long":132.78031249999998}},{"name":"くまざわ書店下関店","post":"〒750-0025","address":"山口県下関市竹崎町４－４－７ ダイエー下関店４Ｆ","tel":"083-228-0401","mapUrl":"https://maps.google.co.jp/maps?q=%e3%81%8f%e3%81%be%e3%81%96%e3%82%8f%e6%9b%b8%e5%ba%97%e4%b8%8b%e9%96%a2%e5%ba%97","storeUrl":"https://www.kumabook.com/","position":{"lat":33.949312500000005,"long":130.92443749999995}},{"name":"紀伊國屋書店徳島店","post":"〒770-8511","address":"徳島県徳島市寺島本町西１－５ そごう徳島店８Ｆ","tel":"088-602-1611","mapUrl":"https://maps.google.co.jp/maps?q=%e7%b4%80%e4%bc%8a%e5%9c%8b%e5%b1%8b%e6%9b%b8%e5%ba%97%e5%be%b3%e5%b3%b6%e5%ba%97","storeUrl":"https://www.kinokuniya.co.jp/","position":{"lat":34.074187499999994,"long":134.5494375}},{"name":"宮脇書店本店","post":"〒760-0029","address":"香川県高松市丸亀町４－８","tel":"087-851-3733","mapUrl":"https://maps.google.co.jp/maps?q=%e5%ae%ae%e8%84%87%e6%9b%b8%e5%ba%97%e6%9c%ac%e5%ba%97","storeUrl":"https://www.miyawakishoten.com/","position":{"lat":34.343937499999996,"long":134.04981250000003}},{"name":"ジュンク堂書店高松店","post":"〒760-0054","address":"香川県高松市常磐町１丁目３番地１号 瓦町ＦＬＡＧ７Ｆ","tel":"087-832-0170","mapUrl":"https://maps.google.co.jp/maps?q=%e3%82%b8%e3%83%a5%e3%83%b3%e3%82%af%e5%a0%82%e6%9b%b8%e5%ba%97%e9%ab%98%e6%9d%be%e5%ba%97","storeUrl":"http://honto.jp/store/detail_1570148_14HB320.html","position":{"lat":34.33906249999998,"long":134.05256250000002}},{"name":"宮脇書店総本店","post":"〒760-0064","address":"香川県高松市朝日新町３－４","tel":"087-823-3152","mapUrl":"https://maps.google.co.jp/maps?q=%e5%ae%ae%e8%84%87%e6%9b%b8%e5%ba%97%e7%b7%8f%e6%9c%ac%e5%ba%97","storeUrl":"https://www.miyawakishoten.com/","position":{"lat":34.35731249999999,"long":134.06568750000002}},{"name":"宮脇書店南本店","post":"〒761-8071","address":"香川県高松市伏石町２１３９－１１","tel":"087-869-9361","mapUrl":"https://maps.google.co.jp/maps?q=%e5%ae%ae%e8%84%87%e6%9b%b8%e5%ba%97%e5%8d%97%e6%9c%ac%e5%ba%97","storeUrl":"https://www.miyawakishoten.com/","position":{"lat":34.30943749999999,"long":134.06093750000002}},{"name":"ジュンク堂書店松山三越店","post":"〒790-8532","address":"愛媛県松山市一番町３－１－１ 松山三越５Ｆ","tel":"089-915-0075","mapUrl":"https://maps.google.co.jp/maps?q=%e3%82%b8%e3%83%a5%e3%83%b3%e3%82%af%e5%a0%82%e6%9b%b8%e5%ba%97%e6%9d%be%e5%b1%b1%e4%b8%89%e8%b6%8a%e5%ba%97","storeUrl":"http://honto.jp/store/detail_1570054_14HB320.html","position":{"lat":33.8406875,"long":132.76943749999998}},{"name":"金高堂工科大学売店","post":"〒782-0003","address":"高知県香美市土佐山田町宮ノ口１８５ 高知工科大学内","tel":"088-752-3811","mapUrl":"https://maps.google.co.jp/maps?q=%e9%87%91%e9%ab%98%e5%a0%82%e5%b7%a5%e7%a7%91%e5%a4%a7%e5%ad%a6%e5%a3%b2%e5%ba%97","storeUrl":"https://www.kinkohdo.co.jp/","position":{"lat":33.62068749999999,"long":133.7198125}},{"name":"喜久屋書店小倉店","post":"〒802-0002","address":"福岡県北九州市小倉北区京町３－１－１ セントシティ７Ｆ","tel":"093-514-1400","mapUrl":"https://maps.google.co.jp/maps?q=%e5%96%9c%e4%b9%85%e5%b1%8b%e6%9b%b8%e5%ba%97%e5%b0%8f%e5%80%89%e5%ba%97","storeUrl":"https://www.blg.co.jp/kikuya/","position":{"lat":33.88506249999999,"long":130.88256250000006}},{"name":"BCクエスト小倉本店","post":"〒802-0077","address":"福岡県北九州市小倉北区馬借１－４－７","tel":"093-522-3924","mapUrl":"https://maps.google.co.jp/maps?q=BC%e3%82%af%e3%82%a8%e3%82%b9%e3%83%88%e5%b0%8f%e5%80%89%e6%9c%ac%e5%ba%97","storeUrl":"https://www.nic-retails.co.jp/","position":{"lat":33.8816875,"long":130.87843750000002}},{"name":"ジュンク堂書店福岡店","post":"〒810-0041","address":"福岡県福岡市中央区大名１－１５－１ 西通りスクエア１Ｆ～３Ｆ","tel":"092-738-3322","mapUrl":"https://maps.google.co.jp/maps?q=%e3%82%b8%e3%83%a5%e3%83%b3%e3%82%af%e5%a0%82%e6%9b%b8%e5%ba%97%e7%a6%8f%e5%b2%a1%e5%ba%97","storeUrl":"http://honto.jp/store/detail_1570028_14HB320.html","position":{"lat":33.58706249999999,"long":130.39693750000004}},{"name":"紀伊國屋書店福岡工業大学ブックセンター","post":"〒811-0214","address":"福岡県福岡市東区和白東３－３０－１","tel":"092-608-5080","mapUrl":"https://maps.google.co.jp/maps?q=%e7%b4%80%e4%bc%8a%e5%9c%8b%e5%b1%8b%e6%9b%b8%e5%ba%97%e7%a6%8f%e5%b2%a1%e5%b7%a5%e6%a5%ad%e5%a4%a7%e5%ad%a6%e3%83%96%e3%83%83%e3%82%af%e3%82%bb%e3%83%b3%e3%82%bf%e3%83%bc","storeUrl":"https://corp.kinokuniya.co.jp/location/univ/","position":{"lat":33.696312500000005,"long":130.4416875}},{"name":"丸善博多店","post":"〒812-0012","address":"福岡県福岡市博多区博多駅中央街１－１ 博多駅ビルアミュプラザ８Ｆ","tel":"092-413-5401","mapUrl":"https://maps.google.co.jp/maps?q=%e4%b8%b8%e5%96%84%e5%8d%9a%e5%a4%9a%e5%ba%97","storeUrl":"http://honto.jp/store/detail_1577305_14HB310.html","position":{"lat":33.5896875,"long":130.42068749999999}},{"name":"紀伊國屋書店福岡本店","post":"〒812-0012","address":"福岡県福岡市博多区博多駅中央街２－１ 福岡交通センタービル６Ｆ","tel":"092-434-3100","mapUrl":"https://maps.google.co.jp/maps?q=%e7%b4%80%e4%bc%8a%e5%9c%8b%e5%b1%8b%e6%9b%b8%e5%ba%97%e7%a6%8f%e5%b2%a1%e6%9c%ac%e5%ba%97","storeUrl":"https://www.kinokuniya.co.jp/","position":{"lat":33.5913125,"long":130.41918749999996}},{"name":"九州大学生協医系書籍部","post":"〒812-0054","address":"福岡県福岡市東区馬出３－１－１","tel":"092-651-7134","mapUrl":"https://maps.google.co.jp/maps?q=%e4%b9%9d%e5%b7%9e%e5%a4%a7%e5%ad%a6%e7%94%9f%e5%8d%94%e5%8c%bb%e7%b3%bb%e6%9b%b8%e7%b1%8d%e9%83%a8","storeUrl":"","position":{"lat":33.611437499999994,"long":130.41668749999997}},{"name":"福岡金文堂福岡大学店","post":"〒814-0180","address":"福岡県福岡市城南区七隈８－１９－１ 福岡大学構内","tel":"092-871-1611","mapUrl":"https://maps.google.co.jp/maps?q=%e7%a6%8f%e5%b2%a1%e9%87%91%e6%96%87%e5%a0%82%e7%a6%8f%e5%b2%a1%e5%a4%a7%e5%ad%a6%e5%ba%97","storeUrl":"","position":{"lat":33.548937499999994,"long":130.3658125}},{"name":"九州大学生協筑紫店","post":"〒816-0811","address":"福岡県春日市春日公園６－１","tel":"092-588-1203","mapUrl":"https://maps.google.co.jp/maps?q=%e4%b9%9d%e5%b7%9e%e5%a4%a7%e5%ad%a6%e7%94%9f%e5%8d%94%e7%ad%91%e7%b4%ab%e5%ba%97","storeUrl":"","position":{"lat":33.52156249999999,"long":130.4765625}},{"name":"九州大学生協ビッグどら店","post":"〒819-0385","address":"福岡県福岡市西区元岡７４４ 九州大学内ウエストゾーン　ビッグどら","tel":"092-834-2310","mapUrl":"https://maps.google.co.jp/maps?q=%e4%b9%9d%e5%b7%9e%e5%a4%a7%e5%ad%a6%e7%94%9f%e5%8d%94%e3%83%93%e3%83%83%e3%82%b0%e3%81%a9%e3%82%89%e5%ba%97","storeUrl":"","position":{"lat":33.597562499999995,"long":130.22418749999997}},{"name":"九州大学生協伊都皎皎舎店","post":"〒819-0385","address":"福岡県福岡市西区元岡７４４","tel":"092-805-7700","mapUrl":"https://maps.google.co.jp/maps?q=%e4%b9%9d%e5%b7%9e%e5%a4%a7%e5%ad%a6%e7%94%9f%e5%8d%94%e4%bc%8a%e9%83%bd%e7%9a%8e%e7%9a%8e%e8%88%8e%e5%ba%97","storeUrl":"","position":{"lat":33.597562499999995,"long":130.22418749999997}},{"name":"九州大学生協中央図書館店","post":"〒819-0395","address":"福岡県福岡市西区元岡７４４ 中央図書館３階","tel":"092-707-6532","mapUrl":"https://maps.google.co.jp/maps?q=%e4%b9%9d%e5%b7%9e%e5%a4%a7%e5%ad%a6%e7%94%9f%e5%8d%94%e4%b8%ad%e5%a4%ae%e5%9b%b3%e6%9b%b8%e9%a4%a8%e5%ba%97","storeUrl":"","position":{"lat":33.597562499999995,"long":130.22418749999997}},{"name":"九州大学生協ウエスト5号店","post":"〒819-0395","address":"福岡県福岡市西区元岡７４４ 九大生協ウエスト５号館","tel":"092-834-2810","mapUrl":"https://maps.google.co.jp/maps?q=%e4%b9%9d%e5%b7%9e%e5%a4%a7%e5%ad%a6%e7%94%9f%e5%8d%94%e3%82%a6%e3%82%a8%e3%82%b9%e3%83%885%e5%8f%b7%e5%ba%97","storeUrl":"","position":{"lat":33.59406249999999,"long":130.2140625}},{"name":"きくたけ金文堂久留米工業大学店","post":"〒830-0052","address":"福岡県久留米市上津町２２２８－６６","tel":"094-222-2123","mapUrl":"https://maps.google.co.jp/maps?q=%e3%81%8d%e3%81%8f%e3%81%9f%e3%81%91%e9%87%91%e6%96%87%e5%a0%82%e4%b9%85%e7%95%99%e7%b1%b3%e5%b7%a5%e6%a5%ad%e5%a4%a7%e5%ad%a6%e5%ba%97","storeUrl":"https://kinbundo.co.jp/","position":{"lat":33.2663125,"long":130.53718750000002}},{"name":"紀伊國屋書店久留米店","post":"〒839-0865","address":"福岡県久留米市新合川１－２－１ ゆめタウン久留米２Ｆ","tel":"094-245-7170","mapUrl":"https://maps.google.co.jp/maps?q=%e7%b4%80%e4%bc%8a%e5%9c%8b%e5%b1%8b%e6%9b%b8%e5%ba%97%e4%b9%85%e7%95%99%e7%b1%b3%e5%ba%97","storeUrl":"https://www.kinokuniya.co.jp/","position":{"lat":33.32181249999999,"long":130.5385625}},{"name":"紀伊國屋書店佐賀店","post":"〒849-0919","address":"佐賀県佐賀市兵庫町兵庫北５丁目１４番１号 ゆめタウン佐賀２Ｆ","tel":"095-236-8171","mapUrl":"https://maps.google.co.jp/maps?q=%e7%b4%80%e4%bc%8a%e5%9c%8b%e5%b1%8b%e6%9b%b8%e5%ba%97%e4%bd%90%e8%b3%80%e5%ba%97","storeUrl":"https://www.kinokuniya.co.jp/","position":{"lat":33.2753125,"long":130.30818750000003}},{"name":"紀伊國屋書店長崎店","post":"〒850-0035","address":"長崎県長崎市元船町１０－１ 夢彩都４Ｆ","tel":"095-811-4919","mapUrl":"https://maps.google.co.jp/maps?q=%e7%b4%80%e4%bc%8a%e5%9c%8b%e5%b1%8b%e6%9b%b8%e5%ba%97%e9%95%b7%e5%b4%8e%e5%ba%97","storeUrl":"https://www.kinokuniya.co.jp/","position":{"lat":32.7463125,"long":129.8703125}},{"name":"メトロ書店本店","post":"〒850-0058","address":"長崎県長崎市尾上町１－１ アミュプラザ長崎３Ｆ","tel":"095-821-5464","mapUrl":"https://maps.google.co.jp/maps?q=%e3%83%a1%e3%83%88%e3%83%ad%e6%9b%b8%e5%ba%97%e6%9c%ac%e5%ba%97","storeUrl":"https://www.metrobooks.co.jp/mbs/","position":{"lat":32.75156249999999,"long":129.8703125}},{"name":"メトロ書店熊本本店","post":"〒860-0047","address":"熊本県熊本市西区春日３丁目１５－２６ アミュプラザくまもと６Ｆ","tel":"096-351-4646","mapUrl":"https://maps.google.co.jp/maps?q=%e3%83%a1%e3%83%88%e3%83%ad%e6%9b%b8%e5%ba%97%e7%86%8a%e6%9c%ac%e6%9c%ac%e5%ba%97","storeUrl":"https://www.metrobooks.co.jp/mbs/","position":{"lat":32.789062499999986,"long":130.68868750000001}},{"name":"蔦屋書店熊本三年坂","post":"〒860-0801","address":"熊本県熊本市中央区安政町１－２ カリーノ下通２Ｆ","tel":"096-212-9101","mapUrl":"https://maps.google.co.jp/maps?q=%e8%94%a6%e5%b1%8b%e6%9b%b8%e5%ba%97%e7%86%8a%e6%9c%ac%e4%b8%89%e5%b9%b4%e5%9d%82","storeUrl":"https://www.sannenzaka.jp/","position":{"lat":32.801937499999994,"long":130.70968749999997}},{"name":"紀伊國屋書店熊本光の森店","post":"〒869-1108","address":"熊本県菊池郡菊陽町光の森７－３３－１ ゆめタウン光の森本館２Ｆ","tel":"096-233-1700","mapUrl":"https://maps.google.co.jp/maps?q=%e7%b4%80%e4%bc%8a%e5%9c%8b%e5%b1%8b%e6%9b%b8%e5%ba%97%e7%86%8a%e6%9c%ac%e5%85%89%e3%81%ae%e6%a3%ae%e5%ba%97","storeUrl":"http://www.kinokuniya.co.jp/","position":{"lat":32.860812499999994,"long":130.78431250000006}},{"name":"明林堂書店大分本店","post":"〒870-0007","address":"大分県大分市王子南町３５","tel":"097-573-3400","mapUrl":"https://maps.google.co.jp/maps?q=%e6%98%8e%e6%9e%97%e5%a0%82%e6%9b%b8%e5%ba%97%e5%a4%a7%e5%88%86%e6%9c%ac%e5%ba%97","storeUrl":"http://www.meirindo.co.jp/store/","position":{"lat":33.2409375,"long":131.59281250000004}},{"name":"くまざわ書店大分明野店","post":"〒870-0161","address":"大分県大分市明野東１－１－１ あけのアクロスタウン二番街２Ｆ","tel":"097-552-7511","mapUrl":"https://maps.google.co.jp/maps?q=%e3%81%8f%e3%81%be%e3%81%96%e3%82%8f%e6%9b%b8%e5%ba%97%e5%a4%a7%e5%88%86%e6%98%8e%e9%87%8e%e5%ba%97","storeUrl":"https://www.kumabook.com/","position":{"lat":33.22406249999999,"long":131.6523125}},{"name":"紀伊國屋書店日本文理大学ブックセンター","post":"〒870-0316","address":"大分県大分市一木１７２７","tel":"097-593-0955","mapUrl":"https://maps.google.co.jp/maps?q=%e7%b4%80%e4%bc%8a%e5%9c%8b%e5%b1%8b%e6%9b%b8%e5%ba%97%e6%97%a5%e6%9c%ac%e6%96%87%e7%90%86%e5%a4%a7%e5%ad%a6%e3%83%96%e3%83%83%e3%82%af%e3%82%bb%e3%83%b3%e3%82%bf%e3%83%bc","storeUrl":"https://corp.kinokuniya.co.jp/location/univ/","position":{"lat":33.23106250000001,"long":131.72531249999997}},{"name":"未来屋書店宮崎店","post":"〒880-0834","address":"宮崎県宮崎市新別府町江口８６２－１ イオンモール宮崎　新館２Ｆ","tel":"098-577-7507","mapUrl":"https://maps.google.co.jp/maps?q=%e6%9c%aa%e6%9d%a5%e5%b1%8b%e6%9b%b8%e5%ba%97%e5%ae%ae%e5%b4%8e%e5%ba%97","storeUrl":"https://www.miraiyashoten.co.jp/store/","position":{"lat":31.922812499999992,"long":131.4559375}},{"name":"ブックスミスミオプシア","post":"〒890-0073","address":"鹿児島県鹿児島市宇宿２－３－５ オプシアミスミ１Ｆ","tel":"099-813-7012","mapUrl":"https://maps.google.co.jp/maps?q=%e3%83%96%e3%83%83%e3%82%af%e3%82%b9%e3%83%9f%e3%82%b9%e3%83%9f%e3%82%aa%e3%83%97%e3%82%b7%e3%82%a2","storeUrl":"http://kk-misumi.jp/","position":{"lat":31.543437499999996,"long":130.54481250000003}},{"name":"ジュンク堂書店鹿児島店","post":"〒892-0826","address":"鹿児島県鹿児島市呉服町６－５ マルヤガーデンズ５Ｆ・６Ｆ","tel":"099-216-8838","mapUrl":"https://maps.google.co.jp/maps?q=%e3%82%b8%e3%83%a5%e3%83%b3%e3%82%af%e5%a0%82%e6%9b%b8%e5%ba%97%e9%b9%bf%e5%85%90%e5%b3%b6%e5%ba%97","storeUrl":"http://honto.jp/store/detail_1570058_14HB320.html","position":{"lat":31.5906875,"long":130.55706250000003}},{"name":"ジュンク堂書店那覇店","post":"〒900-0013","address":"沖縄県那覇市牧志１－１９－２９ Ｄｎａｈａ内","tel":"098-860-7175","mapUrl":"https://maps.google.co.jp/maps?q=%e3%82%b8%e3%83%a5%e3%83%b3%e3%82%af%e5%a0%82%e6%9b%b8%e5%ba%97%e9%82%a3%e8%a6%87%e5%ba%97","storeUrl":"http://honto.jp/store/detail_1570050_14HB320.html","position":{"lat":26.218562500000004,"long":127.6858125}}]}