[{"name":"コーチャンフォー新川通り店","post":"〒001-0923","address":"北海道札幌市北区新川三条18丁目1-1","tel":"011-769-4000","mapUrl":"https://maps.google.co.jp/maps?q=%e3%82%b3%e3%83%bc%e3%83%81%e3%83%a3%e3%83%b3%e3%83%95%e3%82%a9%e3%83%bc%e6%96%b0%e5%b7%9d%e9%80%9a%e3%82%8a%e5%ba%97","position":{"lat":"43.1149758","long":"141.2893192"}},{"name":"コーチャンフォー美しが丘店","post":"〒004-0811","address":"北海道札幌市清田区美しが丘一条5丁目2-1","tel":"011-889-2000","mapUrl":"https://maps.google.co.jp/maps?q=%e3%82%b3%e3%83%bc%e3%83%81%e3%83%a3%e3%83%b3%e3%83%95%e3%82%a9%e3%83%bc%e7%be%8e%e3%81%97%e3%81%8c%e4%b8%98%e5%ba%97","position":{"lat":"42.984432","long":"141.4539767"}},{"name":"丸善キャンパスショップHIT店","post":"〒006-8585","address":"北海道札幌市手稲区前田七条15-4-1 北海道工業大学図書館1F","tel":"011-688-0017","mapUrl":"https://maps.google.co.jp/maps?q=%e4%b8%b8%e5%96%84%e3%82%ad%e3%83%a3%e3%83%b3%e3%83%91%e3%82%b9%e3%82%b7%e3%83%a7%e3%83%83%e3%83%97HIT%e5%ba%97","position":{"lat":"35.133381","long":"138.7921408"}},{"name":"蔦屋書店函館店","post":"〒041-0802","address":"北海道函館市石川町85-1","tel":"0138-47-3771","mapUrl":"https://maps.google.co.jp/maps?q=%e8%94%a6%e5%b1%8b%e6%9b%b8%e5%ba%97%e5%87%bd%e9%a4%a8%e5%ba%97","position":{"lat":"41.8306568","long":"140.7335639"}},{"name":"三省堂書店札幌店","post":"〒060-0005","address":"北海道札幌市中央区北五条西2-5 JRﾀﾜｰ札幌ｽﾃﾗﾌﾟﾚｲｽ5F","tel":"011-209-5600","mapUrl":"https://maps.google.co.jp/maps?q=%e4%b8%89%e7%9c%81%e5%a0%82%e6%9b%b8%e5%ba%97%e6%9c%ad%e5%b9%8c%e5%ba%97","position":{"lat":"43.0680557","long":"141.3500815"}},{"name":"紀伊國屋書店札幌本店","post":"〒060-0005","address":"北海道札幌市中央区北五条西5-7 sapporo55","tel":"011-231-2131","mapUrl":"https://maps.google.co.jp/maps?q=%e7%b4%80%e4%bc%8a%e5%9c%8b%e5%b1%8b%e6%9b%b8%e5%ba%97%e6%9c%ad%e5%b9%8c%e6%9c%ac%e5%ba%97","position":{"lat":"43.0673386","long":"141.3461616"}},{"name":"MARUZEN＆ジュンク堂書店札幌店","post":"〒060-0061","address":"北海道札幌市中央区南一条西1-8-2 丸井今井南館内","tel":"011-223-1911","mapUrl":"https://maps.google.co.jp/maps?q=MARUZEN%ef%bc%86%e3%82%b8%e3%83%a5%e3%83%b3%e3%82%af%e5%a0%82%e6%9b%b8%e5%ba%97%e6%9c%ad%e5%b9%8c%e5%ba%97","position":{"lat":"43.0592093","long":"141.3538913"}},{"name":"ヨドバシカメラ札幌店","post":"〒060-0806","address":"北海道札幌市北区北六条西5-1-22","tel":"011-242-1010","mapUrl":"https://maps.google.co.jp/maps?q=%e3%83%a8%e3%83%89%e3%83%90%e3%82%b7%e3%82%ab%e3%83%a1%e3%83%a9%e6%9c%ad%e5%b9%8c%e5%ba%97","position":{"lat":"43.0683875","long":"141.3455314"}},{"name":"コーチャンフォーミュンヘン大橋店","post":"〒062-0921","address":"北海道札幌市豊平区中の島一条13-1-1","tel":"011-817-4000","mapUrl":"https://maps.google.co.jp/maps?q=%e3%82%b3%e3%83%bc%e3%83%81%e3%83%a3%e3%83%b3%e3%83%95%e3%82%a9%e3%83%bc%e3%83%9f%e3%83%a5%e3%83%b3%e3%83%98%e3%83%b3%e5%a4%a7%e6%a9%8b%e5%ba%97","position":{"lat":"43.0175158","long":"141.3537257"}},{"name":"ジュンク堂書店旭川店","post":"〒070-0040","address":"北海道旭川市1条通8丁目108番地 ﾌｨｰﾙ旭川1-5F","tel":"0166-26-1120","mapUrl":"https://maps.google.co.jp/maps?q=%e3%82%b8%e3%83%a5%e3%83%b3%e3%82%af%e5%a0%82%e6%9b%b8%e5%ba%97%e6%97%ad%e5%b7%9d%e5%ba%97","position":{"lat":"43.7654017","long":"142.3582132"}},{"name":"コーチャンフォー旭川店","post":"〒078-8391","address":"北海道旭川市宮前1条2丁目4番1号","tel":"0166-76-4000","mapUrl":"https://maps.google.co.jp/maps?q=%e3%82%b3%e3%83%bc%e3%83%81%e3%83%a3%e3%83%b3%e3%83%95%e3%82%a9%e3%83%bc%e6%97%ad%e5%b7%9d%e5%ba%97","position":{"lat":"43.758776","long":"142.3657113"}},{"name":"喜久屋書店帯広店","post":"〒080-0014","address":"北海道帯広市西四条南12-3 長崎屋帯広店4F","tel":"0155-66-7799","mapUrl":"https://maps.google.co.jp/maps?q=%e5%96%9c%e4%b9%85%e5%b1%8b%e6%9b%b8%e5%ba%97%e5%b8%af%e5%ba%83%e5%ba%97","position":{"lat":"42.917936","long":"143.1971083"}},{"name":"コーチャンフォー釧路店","post":"〒085-0813","address":"北海道釧路市春採7-1-24","tel":"0154-46-7777","mapUrl":"https://maps.google.co.jp/maps?q=%e3%82%b3%e3%83%bc%e3%83%81%e3%83%a3%e3%83%b3%e3%83%95%e3%82%a9%e3%83%bc%e9%87%a7%e8%b7%af%e5%ba%97","position":{"lat":"42.977515","long":"144.4115112"}},{"name":"コーチャンフォー北見店","post":"〒090-0012","address":"北海道北見市並木町523","tel":"0157-26-1122","mapUrl":"https://maps.google.co.jp/maps?q=%e3%82%b3%e3%83%bc%e3%83%81%e3%83%a3%e3%83%b3%e3%83%95%e3%82%a9%e3%83%bc%e5%8c%97%e8%a6%8b%e5%ba%97","position":{"lat":"43.8266458","long":"143.9134909"}},{"name":"ブックスモア青森中央店","post":"〒030-0843","address":"青森県青森市大字浜田玉川246-1","tel":"017-718-7839","mapUrl":"https://maps.google.co.jp/maps?q=%e3%83%96%e3%83%83%e3%82%af%e3%82%b9%e3%83%a2%e3%82%a2%e9%9d%92%e6%a3%ae%e4%b8%ad%e5%a4%ae%e5%ba%97","position":{"lat":"40.7954727","long":"140.7593453"}},{"name":"ジュンク堂書店弘前中三店","post":"〒036-8182","address":"青森県弘前市土手町49-1 中三百貨店弘前店6F･7F","tel":"0172-34-3131","mapUrl":"https://maps.google.co.jp/maps?q=%e3%82%b8%e3%83%a5%e3%83%b3%e3%82%af%e5%a0%82%e6%9b%b8%e5%ba%97%e5%bc%98%e5%89%8d%e4%b8%ad%e4%b8%89%e5%ba%97","position":{"lat":"40.6018198","long":"140.4708136"}},{"name":"伊吉書院西店","post":"〒039-1161","address":"青森県八戸市河原木字神才6-1","tel":"0178-28-8211","mapUrl":"https://maps.google.co.jp/maps?q=%e4%bc%8a%e5%90%89%e6%9b%b8%e9%99%a2%e8%a5%bf%e5%ba%97","position":{"lat":"40.5255394","long":"141.4496314"}},{"name":"ジュンク堂書店盛岡店","post":"〒020-0022","address":"岩手県盛岡市大通2-8-14 MOSSﾋﾞﾙ3F･4F","tel":"019-601-6161","mapUrl":"https://maps.google.co.jp/maps?q=%e3%82%b8%e3%83%a5%e3%83%b3%e3%82%af%e5%a0%82%e6%9b%b8%e5%ba%97%e7%9b%9b%e5%b2%a1%e5%ba%97","position":{"lat":"39.7024787","long":"141.1426207"}},{"name":"エムズエクスポ盛岡店","post":"〒020-0122","address":"岩手県盛岡市みたけ3-36-1","tel":"019-648-7100","mapUrl":"https://maps.google.co.jp/maps?q=%e3%82%a8%e3%83%a0%e3%82%ba%e3%82%a8%e3%82%af%e3%82%b9%e3%83%9d%e7%9b%9b%e5%b2%a1%e5%ba%97","position":{"lat":"39.7405905","long":"141.1155614"}},{"name":"蔦屋書店盛岡店","post":"〒020-0866","address":"岩手県盛岡市本宮4-40-20","tel":"019-656-4747","mapUrl":"https://maps.google.co.jp/maps?q=%e8%94%a6%e5%b1%8b%e6%9b%b8%e5%ba%97%e7%9b%9b%e5%b2%a1%e5%ba%97","position":{"lat":"39.697786","long":"141.1088755"}},{"name":"ジュンク堂書店仙台ＴＲ店","post":"〒980-0021","address":"宮城県仙台市青葉区中央3-6-1 仙台TRﾋﾞﾙB1F","tel":"022-265-5656","mapUrl":"https://maps.google.co.jp/maps?q=%e3%82%b8%e3%83%a5%e3%83%b3%e3%82%af%e5%a0%82%e6%9b%b8%e5%ba%97%e4%bb%99%e5%8f%b0%ef%bc%b4%ef%bc%b2%e5%ba%97","position":{"lat":"38.260205","long":"140.8770928"}},{"name":"丸善仙台アエル店","post":"〒980-6101","address":"宮城県仙台市青葉区中央1丁目3-1 AER1F","tel":"022-264-0151","mapUrl":"https://maps.google.co.jp/maps?q=%e4%b8%b8%e5%96%84%e4%bb%99%e5%8f%b0%e3%82%a2%e3%82%a8%e3%83%ab%e5%ba%97","position":{"lat":"38.262641","long":"140.8792093"}},{"name":"ヤマト屋書店仙台三越店","post":"〒980-8543","address":"宮城県仙台市青葉区一番町4-8-15 仙台三越定禅寺通り館B2F","tel":"022-393-8541","mapUrl":"https://maps.google.co.jp/maps?q=%e3%83%a4%e3%83%9e%e3%83%88%e5%b1%8b%e6%9b%b8%e5%ba%97%e4%bb%99%e5%8f%b0%e4%b8%89%e8%b6%8a%e5%ba%97","position":{"lat":"38.26512","long":"140.8688813"}},{"name":"蔦屋書店仙台泉店","post":"〒981-3137","address":"宮城県仙台市泉区大沢2-12-4","tel":"022-772-2011","mapUrl":"https://maps.google.co.jp/maps?q=%e8%94%a6%e5%b1%8b%e6%9b%b8%e5%ba%97%e4%bb%99%e5%8f%b0%e6%b3%89%e5%ba%97","position":{"lat":"38.3520748","long":"140.8772751"}},{"name":"ヤマト屋書店長命ヶ丘店","post":"〒981-3212","address":"宮城県仙台市泉区長命ヶ丘2-21-1 BRANCH仙台内","tel":"022-342-0611","mapUrl":"https://maps.google.co.jp/maps?q=%e3%83%a4%e3%83%9e%e3%83%88%e5%b1%8b%e6%9b%b8%e5%ba%97%e9%95%b7%e5%91%bd%e3%83%b6%e4%b8%98%e5%ba%97","position":{"lat":"38.3097804","long":"140.842951"}},{"name":"ヨドバシカメラ仙台店","post":"〒983-0852","address":"宮城県仙台市宮城野区榴岡1-3-1","tel":"022-295-1010","mapUrl":"https://maps.google.co.jp/maps?q=%e3%83%a8%e3%83%89%e3%83%90%e3%82%b7%e3%82%ab%e3%83%a1%e3%83%a9%e4%bb%99%e5%8f%b0%e5%ba%97","position":{"lat":"38.2592054","long":"140.8829178"}},{"name":"ジュンク堂書店秋田店","post":"〒010-0874","address":"秋田県秋田市千秋久保田町4-2 秋田ｵｰﾊﾟ6F","tel":"018-884-1370","mapUrl":"https://maps.google.co.jp/maps?q=%e3%82%b8%e3%83%a5%e3%83%b3%e3%82%af%e5%a0%82%e6%9b%b8%e5%ba%97%e7%a7%8b%e7%94%b0%e5%ba%97","position":{"lat":"39.717733","long":"140.1260623"}},{"name":"紀尚堂日大売店","post":"〒963-1165","address":"福島県郡山市田村町徳定字中河原1 日大工学部厚生ｾﾝﾀｰ内","tel":"024-943-0291","mapUrl":"https://maps.google.co.jp/maps?q=%e7%b4%80%e5%b0%9a%e5%a0%82%e6%97%a5%e5%a4%a7%e5%a3%b2%e5%ba%97","position":{"lat":"35.6997742","long":"139.7533128"}},{"name":"ジュンク堂書店郡山店","post":"〒963-8004","address":"福島県郡山市中町13-1 うすい百貨店9F","tel":"024-927-0440","mapUrl":"https://maps.google.co.jp/maps?q=%e3%82%b8%e3%83%a5%e3%83%b3%e3%82%af%e5%a0%82%e6%9b%b8%e5%ba%97%e9%83%a1%e5%b1%b1%e5%ba%97","position":{"lat":"37.3965521","long":"140.381847"}},{"name":"みどり書房桑野店","post":"〒963-8032","address":"福島県郡山市下亀田16-16","tel":"024-939-0047","mapUrl":"https://maps.google.co.jp/maps?q=%e3%81%bf%e3%81%a9%e3%82%8a%e6%9b%b8%e6%88%bf%e6%a1%91%e9%87%8e%e5%ba%97","position":{"lat":"37.40772","long":"140.3466703"}},{"name":"岩瀬書店富久山店","post":"〒963-8051","address":"福島県郡山市富久山町八山田字大森新田36-1","tel":"024-936-2220","mapUrl":"https://maps.google.co.jp/maps?q=%e5%b2%a9%e7%80%ac%e6%9b%b8%e5%ba%97%e5%af%8c%e4%b9%85%e5%b1%b1%e5%ba%97","position":{"lat":"37.432157","long":"140.3802923"}},{"name":"会津大学ブックセンター","post":"〒965-8580","address":"福島県会津若松市一箕町鶴賀字上居合90","tel":"0242-33-0773","mapUrl":"https://maps.google.co.jp/maps?q=%e4%bc%9a%e6%b4%a5%e5%a4%a7%e5%ad%a6%e3%83%96%e3%83%83%e3%82%af%e3%82%bb%e3%83%b3%e3%82%bf%e3%83%bc","position":{"lat":"37.5237967","long":"139.9365441"}},{"name":"丸善筑波支店第三学群売店","post":"〒305-0005","address":"茨城県つくば市天久保3-9-1","tel":"029-858-0422","mapUrl":"https://maps.google.co.jp/maps?q=%e4%b8%b8%e5%96%84%e7%ad%91%e6%b3%a2%e6%94%af%e5%ba%97%e7%ac%ac%e4%b8%89%e5%ad%a6%e7%be%a4%e5%a3%b2%e5%ba%97","position":{"lat":"36.1109993","long":"140.0981688"}},{"name":"丸善筑波支店大学会館売店","post":"〒305-0006","address":"茨城県つくば市天王台1-1-1","tel":"029-858-0409","mapUrl":"https://maps.google.co.jp/maps?q=%e4%b8%b8%e5%96%84%e7%ad%91%e6%b3%a2%e6%94%af%e5%ba%97%e5%a4%a7%e5%ad%a6%e4%bc%9a%e9%a4%a8%e5%a3%b2%e5%ba%97","position":{"lat":"36.1023363","long":"140.0960897"}},{"name":"TSUTAYA　LALAガーデンつくば店","post":"〒305-0034","address":"茨城県つくば市小野崎字千駄苅278-1 LALAｶﾞｰﾃﾞﾝつくば1F","tel":"029-861-1811","mapUrl":"https://maps.google.co.jp/maps?q=TSUTAYA%e3%80%80LALA%e3%82%ac%e3%83%bc%e3%83%87%e3%83%b3%e3%81%a4%e3%81%8f%e3%81%b0%e5%ba%97","position":{"lat":"36.0734994","long":"140.1015889"}},{"name":"アカデミアイーアスつくば店","post":"〒305-0817","address":"茨城県つくば市研究学園C50街区1 ｲｰｱｽつくば3F","tel":"029-868-7407","mapUrl":"https://maps.google.co.jp/maps?q=%e3%82%a2%e3%82%ab%e3%83%87%e3%83%9f%e3%82%a2%e3%82%a4%e3%83%bc%e3%82%a2%e3%82%b9%e3%81%a4%e3%81%8f%e3%81%b0%e5%ba%97","position":{"lat":"36.0864763","long":"140.0813369"}},{"name":"蔦屋書店ひたちなか店","post":"〒312-0005","address":"茨城県ひたちなか市新光町30-4","tel":"029-265-2300","mapUrl":"https://maps.google.co.jp/maps?q=%e8%94%a6%e5%b1%8b%e6%9b%b8%e5%ba%97%e3%81%b2%e3%81%9f%e3%81%a1%e3%81%aa%e3%81%8b%e5%ba%97","position":{"lat":"36.4072275","long":"140.5820683"}},{"name":"WonderGOO日立中央店","post":"〒316-0036","address":"茨城県日立市鮎川町1-3-3","tel":"0294-28-5130","mapUrl":"https://maps.google.co.jp/maps?q=WonderGOO%e6%97%a5%e7%ab%8b%e4%b8%ad%e5%a4%ae%e5%ba%97","position":{"lat":"36.5594525","long":"140.6367734"}},{"name":"未来屋書店水戸内原店","post":"〒319-0305","address":"茨城県水戸市中原町字西135 ｲｵﾝﾓｰﾙ水戸内原店2F","tel":"029-259-9151","mapUrl":"https://maps.google.co.jp/maps?q=%e6%9c%aa%e6%9d%a5%e5%b1%8b%e6%9b%b8%e5%ba%97%e6%b0%b4%e6%88%b8%e5%86%85%e5%8e%9f%e5%ba%97","position":{"lat":"36.3760891","long":"140.3571201"}},{"name":"喜久屋書店宇都宮店","post":"〒320-0026","address":"栃木県宇都宮市馬場通り2-3-12 MEGAﾄﾞﾝｷ･ﾗﾊﾟｰｸ宇都宮店5階･6階","tel":"028-614-5222","mapUrl":"https://maps.google.co.jp/maps?q=%e5%96%9c%e4%b9%85%e5%b1%8b%e6%9b%b8%e5%ba%97%e5%ae%87%e9%83%bd%e5%ae%ae%e5%ba%97","position":{"lat":"36.5607332","long":"139.8835944"}},{"name":"落合書店宝木店","post":"〒320-0061","address":"栃木県宇都宮市宝木町1-3-135","tel":"028-650-2211","mapUrl":"https://maps.google.co.jp/maps?q=%e8%90%bd%e5%90%88%e6%9b%b8%e5%ba%97%e5%ae%9d%e6%9c%a8%e5%ba%97","position":{"lat":"36.574687","long":"139.8532503"}},{"name":"落合書店イトーヨーカドー店","post":"〒321-0904","address":"栃木県宇都宮市陽東6-2-1 ｲﾄｰﾖｰｶﾄﾞｰ2F","tel":"028-613-1313","mapUrl":"https://maps.google.co.jp/maps?q=%e8%90%bd%e5%90%88%e6%9b%b8%e5%ba%97%e3%82%a4%e3%83%88%e3%83%bc%e3%83%a8%e3%83%bc%e3%82%ab%e3%83%89%e3%83%bc%e5%ba%97","position":{"lat":"36.5539466","long":"139.9263231"}},{"name":"ブックマンズアカデミー高崎店","post":"〒370-0069","address":"群馬県高崎市飯塚町1150-5 ｳﾆｸｽ高崎2F","tel":"027-370-6166","mapUrl":"https://maps.google.co.jp/maps?q=%e3%83%96%e3%83%83%e3%82%af%e3%83%9e%e3%83%b3%e3%82%ba%e3%82%a2%e3%82%ab%e3%83%87%e3%83%9f%e3%83%bc%e9%ab%98%e5%b4%8e%e5%ba%97","position":{"lat":"36.3399423","long":"139.0050336"}},{"name":"戸田書店高崎店","post":"〒370-0074","address":"群馬県高崎市下小鳥町438-1","tel":"027-363-5110","mapUrl":"https://maps.google.co.jp/maps?q=%e6%88%b8%e7%94%b0%e6%9b%b8%e5%ba%97%e9%ab%98%e5%b4%8e%e5%ba%97","position":{"lat":"36.3527718","long":"138.9974145"}},{"name":"未来屋書店高崎店","post":"〒370-3521","address":"群馬県高崎市棟高町1400 ｲｵﾝﾓｰﾙ高崎2F","tel":"027-372-7344","mapUrl":"https://maps.google.co.jp/maps?q=%e6%9c%aa%e6%9d%a5%e5%b1%8b%e6%9b%b8%e5%ba%97%e9%ab%98%e5%b4%8e%e5%ba%97","position":{"lat":"36.3917627","long":"139.0043988"}},{"name":"紀伊國屋書店前橋店","post":"〒371-0801","address":"群馬県前橋市文京町2-1-1 けやきｳｫｰｸ前橋1F","tel":"027-220-1830","mapUrl":"https://maps.google.co.jp/maps?q=%e7%b4%80%e4%bc%8a%e5%9c%8b%e5%b1%8b%e6%9b%b8%e5%ba%97%e5%89%8d%e6%a9%8b%e5%ba%97","position":{"lat":"36.3785515","long":"139.0760506"}},{"name":"ブックマンズアカデミー前橋店","post":"〒371-0854","address":"群馬県前橋市大渡町2-3-1","tel":"027-280-3322","mapUrl":"https://maps.google.co.jp/maps?q=%e3%83%96%e3%83%83%e3%82%af%e3%83%9e%e3%83%b3%e3%82%ba%e3%82%a2%e3%82%ab%e3%83%87%e3%83%9f%e3%83%bc%e5%89%8d%e6%a9%8b%e5%ba%97","position":{"lat":"36.3960889","long":"139.0405037"}},{"name":"喜久屋書店太田店","post":"〒373-0808","address":"群馬県太田市石原町81 ｲｵﾝﾓｰﾙ太田2F","tel":"0276-47-8723","mapUrl":"https://maps.google.co.jp/maps?q=%e5%96%9c%e4%b9%85%e5%b1%8b%e6%9b%b8%e5%ba%97%e5%a4%aa%e7%94%b0%e5%ba%97","position":{"lat":"36.2934702","long":"139.3980781"}},{"name":"ブックマンズアカデミー太田店","post":"〒373-0852","address":"群馬県太田市新井町502-2","tel":"0276-40-1900","mapUrl":"https://maps.google.co.jp/maps?q=%e3%83%96%e3%83%83%e3%82%af%e3%83%9e%e3%83%b3%e3%82%ba%e3%82%a2%e3%82%ab%e3%83%87%e3%83%9f%e3%83%bc%e5%a4%aa%e7%94%b0%e5%ba%97","position":{"lat":"36.285337","long":"139.3713107"}},{"name":"蔦屋書店前橋みなみモール店","post":"〒379-2143","address":"群馬県前橋市新堀町940番 ﾊﾟﾜｰﾓｰﾙ前橋南","tel":"027-210-0886","mapUrl":"https://maps.google.co.jp/maps?q=%e8%94%a6%e5%b1%8b%e6%9b%b8%e5%ba%97%e5%89%8d%e6%a9%8b%e3%81%bf%e3%81%aa%e3%81%bf%e3%83%a2%e3%83%bc%e3%83%ab%e5%ba%97","position":{"lat":"36.3309151","long":"139.096542"}},{"name":"紀伊國屋書店浦和店","post":"〒330-0055","address":"埼玉県さいたま市浦和区東高砂町11-1 浦和ﾊﾟﾙｺ5F","tel":"048-871-2760","mapUrl":"https://maps.google.co.jp/maps?q=%e7%b4%80%e4%bc%8a%e5%9c%8b%e5%b1%8b%e6%9b%b8%e5%ba%97%e6%b5%a6%e5%92%8c%e5%ba%97","position":{"lat":"35.8584668","long":"139.6567276"}},{"name":"須原屋本店","post":"〒330-0062","address":"埼玉県さいたま市浦和区仲町2-3-20","tel":"048-822-5321","mapUrl":"https://maps.google.co.jp/maps?q=%e9%a0%88%e5%8e%9f%e5%b1%8b%e6%9c%ac%e5%ba%97","position":{"lat":"35.860041","long":"139.6507763"}},{"name":"ジュンク堂書店大宮高島屋店","post":"〒330-8511","address":"埼玉県さいたま市大宮区大門町1-32 大宮高島屋7F","tel":"048-640-3111","mapUrl":"https://maps.google.co.jp/maps?q=%e3%82%b8%e3%83%a5%e3%83%b3%e3%82%af%e5%a0%82%e6%9b%b8%e5%ba%97%e5%a4%a7%e5%ae%ae%e9%ab%98%e5%b3%b6%e5%b1%8b%e5%ba%97","position":{"lat":"35.906429","long":"139.6241133"}},{"name":"紀伊國屋書店さいたま新都心店","post":"〒330-9559","address":"埼玉県さいたま市大宮区吉敷町4-267-2 ｺｸｰﾝ新都心1F","tel":"048-600-0830","mapUrl":"https://maps.google.co.jp/maps?q=%e7%b4%80%e4%bc%8a%e5%9c%8b%e5%b1%8b%e6%9b%b8%e5%ba%97%e3%81%95%e3%81%84%e3%81%9f%e3%81%be%e6%96%b0%e9%83%bd%e5%bf%83%e5%ba%97","position":{"lat":"35.8947905","long":"139.6343798"}},{"name":"文教堂書店川口駅店","post":"〒332-0015","address":"埼玉県川口市川口1-1-1 ｷｭﾎﾟ･ﾗ3F","tel":"048-227-4821","mapUrl":"https://maps.google.co.jp/maps?q=%e6%96%87%e6%95%99%e5%a0%82%e6%9b%b8%e5%ba%97%e5%b7%9d%e5%8f%a3%e9%a7%85%e5%ba%97","position":{"lat":"35.8009854","long":"139.7165518"}},{"name":"須原屋武蔵浦和店","post":"〒336-0021","address":"埼玉県さいたま市南区別所7-6-8-209","tel":"048-872-0550","mapUrl":"https://maps.google.co.jp/maps?q=%e9%a0%88%e5%8e%9f%e5%b1%8b%e6%ad%a6%e8%94%b5%e6%b5%a6%e5%92%8c%e5%ba%97","position":{"lat":"35.8454053","long":"139.6455243"}},{"name":"ブックデポ書楽","post":"〒338-0001","address":"埼玉県さいたま市中央区上落合2-3-5 ｱﾙｰｻB館","tel":"048-859-4946","mapUrl":"https://maps.google.co.jp/maps?q=%e3%83%96%e3%83%83%e3%82%af%e3%83%87%e3%83%9d%e6%9b%b8%e6%a5%bd","position":{"lat":"35.891473","long":"139.6255676"}},{"name":"旭屋書店新越谷店","post":"〒343-0845","address":"埼玉県越谷市南越谷1-11-4 VARIE越谷3F","tel":"048-985-5501","mapUrl":"https://maps.google.co.jp/maps?q=%e6%97%ad%e5%b1%8b%e6%9b%b8%e5%ba%97%e6%96%b0%e8%b6%8a%e8%b0%b7%e5%ba%97","position":{"lat":"35.8756838","long":"139.7878982"}},{"name":"錦電サービス","post":"〒350-0311","address":"埼玉県比企郡鳩山町石坂486-81 東京電機大学鳩山校舎内","tel":"049-296-2962","mapUrl":"https://maps.google.co.jp/maps?q=%e9%8c%a6%e9%9b%bb%e3%82%b5%e3%83%bc%e3%83%93%e3%82%b9","position":{"lat":"35.8391134","long":"139.1794496"}},{"name":"ブックファーストルミネ川越店","post":"〒350-1123","address":"埼玉県川越市脇田本町39-19 ﾙﾐﾈ川越店4F","tel":"049-240-6212","mapUrl":"https://maps.google.co.jp/maps?q=%e3%83%96%e3%83%83%e3%82%af%e3%83%95%e3%82%a1%e3%83%bc%e3%82%b9%e3%83%88%e3%83%ab%e3%83%9f%e3%83%8d%e5%b7%9d%e8%b6%8a%e5%ba%97","position":{"lat":"35.90717","long":"139.4804473"}},{"name":"旭屋書店志木店","post":"〒352-0001","address":"埼玉県新座市東北2-38-10 ｴｽﾃｨﾄｽｶ3F","tel":"048-487-6165","mapUrl":"https://maps.google.co.jp/maps?q=%e6%97%ad%e5%b1%8b%e6%9b%b8%e5%ba%97%e5%bf%97%e6%9c%a8%e5%ba%97","position":{"lat":"35.822532","long":"139.5730903"}},{"name":"丸善桶川店","post":"〒363-0022","address":"埼玉県桶川市若宮1丁目5番2号 桶川ﾏｲﾝ3F","tel":"048-789-0011","mapUrl":"https://maps.google.co.jp/maps?q=%e4%b8%b8%e5%96%84%e6%a1%b6%e5%b7%9d%e5%ba%97","position":{"lat":"35.99835","long":"139.5605773"}},{"name":"三省堂書店そごう千葉店","post":"〒260-0028","address":"千葉県千葉市中央区新町1000 そごう千葉店9F","tel":"043-245-8331","mapUrl":"https://maps.google.co.jp/maps?q=%e4%b8%89%e7%9c%81%e5%a0%82%e6%9b%b8%e5%ba%97%e3%81%9d%e3%81%94%e3%81%86%e5%8d%83%e8%91%89%e5%ba%97","position":{"lat":"35.6109251","long":"140.1114783"}},{"name":"くまざわ書店ペリエ千葉店","post":"〒260-0031","address":"千葉県千葉市中央区新千葉1-1-1 ﾍﾟﾘｴ千葉6階","tel":"043-202-2900","mapUrl":"https://maps.google.co.jp/maps?q=%e3%81%8f%e3%81%be%e3%81%96%e3%82%8f%e6%9b%b8%e5%ba%97%e3%83%9a%e3%83%aa%e3%82%a8%e5%8d%83%e8%91%89%e5%ba%97","position":{"lat":"35.613178","long":"140.1112815"}},{"name":"蔦屋書店イオンモール幕張新都心店","post":"〒261-0014","address":"千葉県千葉市美浜区豊砂1-1 ｲｵﾝﾓｰﾙ幕張新都心ｸﾞﾗﾝﾄﾞﾓｰﾙ1F","tel":"043-306-7361","mapUrl":"https://maps.google.co.jp/maps?q=%e8%94%a6%e5%b1%8b%e6%9b%b8%e5%ba%97%e3%82%a4%e3%82%aa%e3%83%b3%e3%83%a2%e3%83%bc%e3%83%ab%e5%b9%95%e5%bc%b5%e6%96%b0%e9%83%bd%e5%bf%83%e5%ba%97","position":{"lat":"35.6547641","long":"140.0277972"}},{"name":"紀伊國屋書店流山おおたかの森店","post":"〒270-0121","address":"千葉県流山市西初石6-185-2 流山おおたかの森SC2F","tel":"04-7156-6111","mapUrl":"https://maps.google.co.jp/maps?q=%e7%b4%80%e4%bc%8a%e5%9c%8b%e5%b1%8b%e6%9b%b8%e5%ba%97%e6%b5%81%e5%b1%b1%e3%81%8a%e3%81%8a%e3%81%9f%e3%81%8b%e3%81%ae%e6%a3%ae%e5%ba%97","position":{"lat":"35.8702662","long":"139.9244098"}},{"name":"喜久屋書店千葉ニュータウン店","post":"〒270-1350","address":"千葉県印西市中央北3-2 ｲｵﾝﾓｰﾙ千葉ﾆｭｰﾀｳﾝ3F","tel":"0476-40-7732","mapUrl":"https://maps.google.co.jp/maps?q=%e5%96%9c%e4%b9%85%e5%b1%8b%e6%9b%b8%e5%ba%97%e5%8d%83%e8%91%89%e3%83%8b%e3%83%a5%e3%83%bc%e3%82%bf%e3%82%a6%e3%83%b3%e5%ba%97","position":{"lat":"35.8015355","long":"140.1097855"}},{"name":"喜久屋書店松戸店","post":"〒271-0092","address":"千葉県松戸市松戸1307-1 KITE MITE MATSUDO 7F","tel":"047-393-8066","mapUrl":"https://maps.google.co.jp/maps?q=%e5%96%9c%e4%b9%85%e5%b1%8b%e6%9b%b8%e5%ba%97%e6%9d%be%e6%88%b8%e5%ba%97","position":{"lat":"35.7819877","long":"139.8967276"}},{"name":"福家書店市川店","post":"〒272-0015","address":"千葉県市川市鬼高1-1-1 ﾆｯｹｺﾙﾄﾝﾌﾟﾗｻﾞ3F","tel":"047-379-0298","mapUrl":"https://maps.google.co.jp/maps?q=%e7%a6%8f%e5%ae%b6%e6%9b%b8%e5%ba%97%e5%b8%82%e5%b7%9d%e5%ba%97","position":{"lat":"35.7168555","long":"139.9316339"}},{"name":"旭屋書店船橋店","post":"〒273-0005","address":"千葉県船橋市本町7-1-1 船橋東武5F","tel":"047-424-7331","mapUrl":"https://maps.google.co.jp/maps?q=%e6%97%ad%e5%b1%8b%e6%9b%b8%e5%ba%97%e8%88%b9%e6%a9%8b%e5%ba%97","position":{"lat":"35.7024498","long":"139.9822818"}},{"name":"ジュンク堂書店南船橋店","post":"〒273-0012","address":"千葉県船橋市浜町2-2-7 ﾋﾞﾋﾞｯﾄ南船橋1階","tel":"047-401-0330","mapUrl":"https://maps.google.co.jp/maps?q=%e3%82%b8%e3%83%a5%e3%83%b3%e3%82%af%e5%a0%82%e6%9b%b8%e5%ba%97%e5%8d%97%e8%88%b9%e6%a9%8b%e5%ba%97","position":{"lat":"35.6871966","long":"139.9905013"}},{"name":"巖翠堂北習志野店","post":"〒274-0063","address":"千葉県船橋市習志野台7-25-16","tel":"047-465-0926","mapUrl":"https://maps.google.co.jp/maps?q=%e5%b7%96%e7%bf%a0%e5%a0%82%e5%8c%97%e7%bf%92%e5%bf%97%e9%87%8e%e5%ba%97","position":{"lat":"35.722931","long":"140.0538853"}},{"name":"くまざわ書店津田沼店","post":"〒275-0016","address":"千葉県習志野市津田沼1-1-1 ﾎﾃﾙﾒｯﾂ津田沼5F","tel":"047-475-8311","mapUrl":"https://maps.google.co.jp/maps?q=%e3%81%8f%e3%81%be%e3%81%96%e3%82%8f%e6%9b%b8%e5%ba%97%e6%b4%a5%e7%94%b0%e6%b2%bc%e5%ba%97","position":{"lat":"35.6911699","long":"140.0177513"}},{"name":"丸善津田沼店","post":"〒275-0026","address":"千葉県習志野市谷津7-7-1 ﾌﾞﾛｯｸB棟2F･3F","tel":"047-470-8311","mapUrl":"https://maps.google.co.jp/maps?q=%e4%b8%b8%e5%96%84%e6%b4%a5%e7%94%b0%e6%b2%bc%e5%ba%97","position":{"lat":"35.690821","long":"140.0168993"}},{"name":"ジュンク堂書店柏モディ店","post":"〒277-0005","address":"千葉県柏市柏1-2-26 柏ﾓﾃﾞｨ5階","tel":"04-7168-0215","mapUrl":"https://maps.google.co.jp/maps?q=%e3%82%b8%e3%83%a5%e3%83%b3%e3%82%af%e5%a0%82%e6%9b%b8%e5%ba%97%e6%9f%8f%e3%83%a2%e3%83%87%e3%82%a3%e5%ba%97","position":{"lat":"35.8603915","long":"139.9684628"}},{"name":"蔦屋書店茂原店","post":"〒297-0012","address":"千葉県茂原市六ﾂ野八貫野2785-1","tel":"0475-27-2332","mapUrl":"https://maps.google.co.jp/maps?q=%e8%94%a6%e5%b1%8b%e6%9b%b8%e5%ba%97%e8%8c%82%e5%8e%9f%e5%ba%97","position":{"lat":"35.4308525","long":"140.3077305"}},{"name":"三省堂書店有楽町店","post":"〒100-0006","address":"東京都千代田区有楽町2-10-1 東京交通会館2F","tel":"03-5222-1200","mapUrl":"https://maps.google.co.jp/maps?q=%e4%b8%89%e7%9c%81%e5%a0%82%e6%9b%b8%e5%ba%97%e6%9c%89%e6%a5%bd%e7%94%ba%e5%ba%97","position":{"lat":"35.6748797","long":"139.761956"}},{"name":"丸善丸の内本店","post":"〒100-8203","address":"東京都千代田区丸の内1-6-4 丸の内OAZO内","tel":"03-5288-8881","mapUrl":"https://maps.google.co.jp/maps?q=%e4%b8%b8%e5%96%84%e4%b8%b8%e3%81%ae%e5%86%85%e6%9c%ac%e5%ba%97","position":{"lat":"35.6835155","long":"139.7644789"}},{"name":"書泉ブックタワー","post":"〒101-0025","address":"東京都千代田区神田佐久間町1-11-1","tel":"03-5296-0051","mapUrl":"https://maps.google.co.jp/maps?q=%e6%9b%b8%e6%b3%89%e3%83%96%e3%83%83%e3%82%af%e3%82%bf%e3%83%af%e3%83%bc","position":{"lat":"35.6973762","long":"139.772972"}},{"name":"ヨドバシカメラマルチメディアAKIBA店","post":"〒101-0028","address":"東京都千代田区神田花岡町1-1","tel":"03-5209-1010","mapUrl":"https://maps.google.co.jp/maps?q=%e3%83%a8%e3%83%89%e3%83%90%e3%82%b7%e3%82%ab%e3%83%a1%e3%83%a9%e3%83%9e%e3%83%ab%e3%83%81%e3%83%a1%e3%83%87%e3%82%a3%e3%82%a2AKIBA%e5%ba%97","position":{"lat":"35.7013435","long":"139.687692"}},{"name":"有隣堂ヨドバシAKIBA店","post":"〒101-0028","address":"東京都千代田区神田花岡町1-1 ﾖﾄﾞﾊﾞｼAKIBA7F","tel":"03-5298-7474","mapUrl":"https://maps.google.co.jp/maps?q=%e6%9c%89%e9%9a%a3%e5%a0%82%e3%83%a8%e3%83%89%e3%83%90%e3%82%b7AKIBA%e5%ba%97","position":{"lat":"35.6989768","long":"139.7724724"}},{"name":"書泉グランデ","post":"〒101-0051","address":"東京都千代田区神田神保町1-3-2","tel":"03-3295-0011","mapUrl":"https://maps.google.co.jp/maps?q=%e6%9b%b8%e6%b3%89%e3%82%b0%e3%83%a9%e3%83%b3%e3%83%87","position":{"lat":"35.6958406","long":"139.757587"}},{"name":"三省堂書店神保町本店","post":"〒101-0051","address":"東京都千代田区神田神保町1-1","tel":"03-3233-3312","mapUrl":"https://maps.google.co.jp/maps?q=%e4%b8%89%e7%9c%81%e5%a0%82%e6%9b%b8%e5%ba%97%e7%a5%9e%e4%bf%9d%e7%94%ba%e6%9c%ac%e5%ba%97","position":{"lat":"35.6956333","long":"139.7586307"}},{"name":"丸善お茶の水店","post":"〒101-0062","address":"東京都千代田区神田駿河台2-8 瀬川ﾋﾞﾙ1F","tel":"03-3295-5581","mapUrl":"https://maps.google.co.jp/maps?q=%e4%b8%b8%e5%96%84%e3%81%8a%e8%8c%b6%e3%81%ae%e6%b0%b4%e5%ba%97","position":{"lat":"35.6993026","long":"139.7621006"}},{"name":"文教堂書店市ヶ谷店","post":"〒102-0076","address":"東京都千代田区五番町3-1 五番町ｸﾞﾗﾝﾄﾞﾋﾞﾙ1F","tel":"03-3556-0632","mapUrl":"https://maps.google.co.jp/maps?q=%e6%96%87%e6%95%99%e5%a0%82%e6%9b%b8%e5%ba%97%e5%b8%82%e3%83%b6%e8%b0%b7%e5%ba%97","position":{"lat":"35.6906701","long":"139.7337476"}},{"name":"丸善日本橋店","post":"〒103-8245","address":"東京都中央区日本橋2-3-10","tel":"03-6214-2001","mapUrl":"https://maps.google.co.jp/maps?q=%e4%b8%b8%e5%96%84%e6%97%a5%e6%9c%ac%e6%a9%8b%e5%ba%97","position":{"lat":"35.680953","long":"139.7702865"}},{"name":"八重洲ブックセンター八重洲本店","post":"〒104-8456","address":"東京都中央区八重洲2丁目5-1","tel":"03-3281-8203","mapUrl":"https://maps.google.co.jp/maps?q=%e5%85%ab%e9%87%8d%e6%b4%b2%e3%83%96%e3%83%83%e3%82%af%e3%82%bb%e3%83%b3%e3%82%bf%e3%83%bc%e5%85%ab%e9%87%8d%e6%b4%b2%e6%9c%ac%e5%ba%97","position":{"lat":"35.6781495","long":"139.7659895"}},{"name":"ブックファースト六本木店","post":"〒106-0032","address":"東京都港区六本木6丁目1-24 ﾗﾋﾟﾛｽ六本木1F","tel":"03-3403-0327","mapUrl":"https://maps.google.co.jp/maps?q=%e3%83%96%e3%83%83%e3%82%af%e3%83%95%e3%82%a1%e3%83%bc%e3%82%b9%e3%83%88%e5%85%ad%e6%9c%ac%e6%9c%a8%e5%ba%97","position":{"lat":"35.6627558","long":"139.7296939"}},{"name":"文教堂書店赤坂店","post":"〒107-0052","address":"東京都港区赤坂2-14-17 国際新赤坂ﾋﾞﾙ東館1F","tel":"03-5573-4321","mapUrl":"https://maps.google.co.jp/maps?q=%e6%96%87%e6%95%99%e5%a0%82%e6%9b%b8%e5%ba%97%e8%b5%a4%e5%9d%82%e5%ba%97","position":{"lat":"35.6721438","long":"139.7349026"}},{"name":"くまざわ書店田町店","post":"〒108-0023","address":"東京都港区芝浦3-1-21 田町ｽﾃｰｼｮﾝﾀﾜｰS棟4階","tel":"03-5476-0510","mapUrl":"https://maps.google.co.jp/maps?q=%e3%81%8f%e3%81%be%e3%81%96%e3%82%8f%e6%9b%b8%e5%ba%97%e7%94%b0%e7%94%ba%e5%ba%97","position":{"lat":"35.6449425","long":"139.7468568"}},{"name":"くまざわ書店品川店","post":"〒108-6002","address":"東京都港区港南2-15-2 品川ｲﾝﾀｰｼﾃｨA棟2F","tel":"03-3472-0481","mapUrl":"https://maps.google.co.jp/maps?q=%e3%81%8f%e3%81%be%e3%81%96%e3%82%8f%e6%9b%b8%e5%ba%97%e5%93%81%e5%b7%9d%e5%ba%97","position":{"lat":"35.6272126","long":"139.7399893"}},{"name":"中央大学生協理工店","post":"〒112-8551","address":"東京都文京区春日1-13-27","tel":"03-3814-5928","mapUrl":"https://maps.google.co.jp/maps?q=%e4%b8%ad%e5%a4%ae%e5%a4%a7%e5%ad%a6%e7%94%9f%e5%8d%94%e7%90%86%e5%b7%a5%e5%ba%97","position":{"lat":"35.6754321","long":"139.4358991"}},{"name":"東京大学生協本郷書籍部","post":"〒113-0033","address":"東京都文京区本郷7-3-1","tel":"03-5841-2420","mapUrl":"https://maps.google.co.jp/maps?q=%e6%9d%b1%e4%ba%ac%e5%a4%a7%e5%ad%a6%e7%94%9f%e5%8d%94%e6%9c%ac%e9%83%b7%e6%9b%b8%e7%b1%8d%e9%83%a8","position":{"lat":"35.7136877","long":"139.762063"}},{"name":"談･文教堂赤羽店","post":"〒115-0045","address":"東京都北区赤羽1-7-9 METS赤羽第一葉山ﾋﾞﾙ","tel":"03-5249-2601","mapUrl":"https://maps.google.co.jp/maps?q=%e8%ab%87%ef%bd%a5%e6%96%87%e6%95%99%e5%a0%82%e8%b5%a4%e7%be%bd%e5%ba%97","position":{"lat":"35.7790173","long":"139.7201586"}},{"name":"くまざわ書店錦糸町店","post":"〒130-0013","address":"東京都墨田区錦糸2-2-1 ｱﾙｶｷｯﾄ錦糸町9F","tel":"03-5610-3034","mapUrl":"https://maps.google.co.jp/maps?q=%e3%81%8f%e3%81%be%e3%81%96%e3%82%8f%e6%9b%b8%e5%ba%97%e9%8c%a6%e7%b3%b8%e7%94%ba%e5%ba%97","position":{"lat":"35.6972494","long":"139.8105126"}},{"name":"ヨドバシカメラ錦糸町店","post":"〒130-0022","address":"東京都墨田区江東橋3-14-5 ﾃﾙﾐﾅ2F","tel":"03-3632-1010","mapUrl":"https://maps.google.co.jp/maps?q=%e3%83%a8%e3%83%89%e3%83%90%e3%82%b7%e3%82%ab%e3%83%a1%e3%83%a9%e9%8c%a6%e7%b3%b8%e7%94%ba%e5%ba%97","position":{"lat":"35.6963591","long":"139.8114092"}},{"name":"未来屋書店品川シーサイド店","post":"〒140-0002","address":"東京都品川区東品川4-12-5 ｲｵﾝ品川ｼｰｻｲﾄﾞSC3F","tel":"03-5783-9737","mapUrl":"https://maps.google.co.jp/maps?q=%e6%9c%aa%e6%9d%a5%e5%b1%8b%e6%9b%b8%e5%ba%97%e5%93%81%e5%b7%9d%e3%82%b7%e3%83%bc%e3%82%b5%e3%82%a4%e3%83%89%e5%ba%97","position":{"lat":"35.610994","long":"139.7468883"}},{"name":"有隣堂アトレ大井町店","post":"〒140-0014","address":"東京都品川区大井1-2-1 ｱﾄﾚ大井町店5F5130","tel":"03-5709-7361","mapUrl":"https://maps.google.co.jp/maps?q=%e6%9c%89%e9%9a%a3%e5%a0%82%e3%82%a2%e3%83%88%e3%83%ac%e5%a4%a7%e4%ba%95%e7%94%ba%e5%ba%97","position":{"lat":"35.6063939","long":"139.7326857"}},{"name":"有隣堂アトレ目黒店","post":"〒141-0021","address":"東京都品川区上大崎2-16-7 ｱﾄﾚ目黒1 B館3F","tel":"03-3442-1231","mapUrl":"https://maps.google.co.jp/maps?q=%e6%9c%89%e9%9a%a3%e5%a0%82%e3%82%a2%e3%83%88%e3%83%ac%e7%9b%ae%e9%bb%92%e5%ba%97","position":{"lat":"35.6341039","long":"139.7136927"}},{"name":"ブックファースト五反田店","post":"〒141-0022","address":"東京都品川区東五反田2-1-2 五反田東急スクエア7F","tel":"03-6408-1811","mapUrl":"https://maps.google.co.jp/maps?q=%e3%83%96%e3%83%83%e3%82%af%e3%83%95%e3%82%a1%e3%83%bc%e3%82%b9%e3%83%88%e4%ba%94%e5%8f%8d%e7%94%b0%e5%ba%97","position":{"lat":"35.625585","long":"139.7223893"}},{"name":"ブックファーストアトレ大森店","post":"〒143-0016","address":"東京都大田区大森北1-6-16 ｱﾄﾚ大森4F","tel":"03-5767-6831","mapUrl":"https://maps.google.co.jp/maps?q=%e3%83%96%e3%83%83%e3%82%af%e3%83%95%e3%82%a1%e3%83%bc%e3%82%b9%e3%83%88%e3%82%a2%e3%83%88%e3%83%ac%e5%a4%a7%e6%a3%ae%e5%ba%97","position":{"lat":"35.5882814","long":"139.726052"}},{"name":"有隣堂グランデュオ蒲田店","post":"〒144-0051","address":"東京都大田区西蒲田7-68-1 ｸﾞﾗﾝﾃﾞｭｵ蒲田西館6F","tel":"03-5703-1921","mapUrl":"https://maps.google.co.jp/maps?q=%e6%9c%89%e9%9a%a3%e5%a0%82%e3%82%b0%e3%83%a9%e3%83%b3%e3%83%87%e3%83%a5%e3%82%aa%e8%92%b2%e7%94%b0%e5%ba%97","position":{"lat":"35.5626439","long":"139.7135333"}},{"name":"ACADEMIA東急プラザ蒲田店","post":"〒144-0051","address":"東京都大田区西蒲田7-69-1 東急ﾌﾟﾗｻﾞ蒲田6F","tel":"03-5480-7771","mapUrl":"https://maps.google.co.jp/maps?q=ACADEMIA%e6%9d%b1%e6%80%a5%e3%83%97%e3%83%a9%e3%82%b6%e8%92%b2%e7%94%b0%e5%ba%97","position":{"lat":"35.5621283","long":"139.7131976"}},{"name":"くまざわ書店蒲田店","post":"〒144-0052","address":"東京都大田区蒲田5-13-1 ｸﾞﾗﾝﾃﾞｭｵ蒲田東館6F","tel":"03-3737-5351","mapUrl":"https://maps.google.co.jp/maps?q=%e3%81%8f%e3%81%be%e3%81%96%e3%82%8f%e6%9b%b8%e5%ba%97%e8%92%b2%e7%94%b0%e5%ba%97","position":{"lat":"35.5613657","long":"139.7150094"}},{"name":"有隣堂アトレ恵比寿店","post":"〒150-0022","address":"東京都渋谷区恵比寿南1-5-5 ｱﾄﾚ恵比寿5F 5080","tel":"03-5475-8384","mapUrl":"https://maps.google.co.jp/maps?q=%e6%9c%89%e9%9a%a3%e5%a0%82%e3%82%a2%e3%83%88%e3%83%ac%e6%81%b5%e6%af%94%e5%af%bf%e5%ba%97","position":{"lat":"35.6463274","long":"139.7082251"}},{"name":"BOOK LAB TOKYO","post":"〒150-0043","address":"東京都渋谷区道玄坂2-10-7 新大宗ﾋﾞﾙ1号館2F","tel":"070-1798-8789","mapUrl":"https://maps.google.co.jp/maps?q=BOOK+LAB+TOKYO","position":{"lat":"35.658276","long":"139.6948743"}},{"name":"啓文堂書店渋谷店","post":"〒150-0043","address":"東京都渋谷区道玄坂1-4-19 井の頭線渋谷駅 西口改札前","tel":"03-5784-3800","mapUrl":"https://maps.google.co.jp/maps?q=%e5%95%93%e6%96%87%e5%a0%82%e6%9b%b8%e5%ba%97%e6%b8%8b%e8%b0%b7%e5%ba%97","position":{"lat":"35.6585914","long":"139.6968541"}},{"name":"MARUZEN＆ジュンク堂書店渋谷店","post":"〒150-8019","address":"東京都渋谷区道玄坂2-24-1 東急百貨店本店7F","tel":"03-5456-2111","mapUrl":"https://maps.google.co.jp/maps?q=MARUZEN%ef%bc%86%e3%82%b8%e3%83%a5%e3%83%b3%e3%82%af%e5%a0%82%e6%9b%b8%e5%ba%97%e6%b8%8b%e8%b0%b7%e5%ba%97","position":{"lat":"35.6606075","long":"139.6938877"}},{"name":"恭文堂書店","post":"〒152-0004","address":"東京都目黒区鷹番3-3-19","tel":"03-3712-4049","mapUrl":"https://maps.google.co.jp/maps?q=%e6%81%ad%e6%96%87%e5%a0%82%e6%9b%b8%e5%ba%97","position":{"lat":"35.6289867","long":"139.6835933"}},{"name":"文教堂書店二子玉川店","post":"〒158-0094","address":"東京都世田谷区玉川2-21-1 二子玉川ﾗｲｽﾞｼｮｯﾋﾟﾝｸﾞｾﾝﾀｰ ﾀｳﾝﾌﾛﾝﾄ6F","tel":"03-5797-5168","mapUrl":"https://maps.google.co.jp/maps?q=%e6%96%87%e6%95%99%e5%a0%82%e6%9b%b8%e5%ba%97%e4%ba%8c%e5%ad%90%e7%8e%89%e5%b7%9d%e5%ba%97","position":{"lat":"35.612295","long":"139.626342"}},{"name":"紀伊國屋書店玉川高島屋店","post":"〒158-0094","address":"東京都世田谷区玉川3-17-1 玉川高島屋ｼｮｯﾋﾟﾝｸﾞｾﾝﾀｰ南館5F","tel":"03-3709-2091","mapUrl":"https://maps.google.co.jp/maps?q=%e7%b4%80%e4%bc%8a%e5%9c%8b%e5%b1%8b%e6%9b%b8%e5%ba%97%e7%8e%89%e5%b7%9d%e9%ab%98%e5%b3%b6%e5%b1%8b%e5%ba%97","position":{"lat":"35.6131559","long":"139.6243724"}},{"name":"ヨドバシカメラ新宿西口店マルチメディア館","post":"〒160-0023","address":"東京都新宿区西新宿1-11-1","tel":"03-3346-1010","mapUrl":"https://maps.google.co.jp/maps?q=%e3%83%a8%e3%83%89%e3%83%90%e3%82%b7%e3%82%ab%e3%83%a1%e3%83%a9%e6%96%b0%e5%ae%bf%e8%a5%bf%e5%8f%a3%e5%ba%97%e3%83%9e%e3%83%ab%e3%83%81%e3%83%a1%e3%83%87%e3%82%a3%e3%82%a2%e9%a4%a8","position":{"lat":"35.6903273","long":"139.6974281"}},{"name":"くまざわ書店オペラシティ店","post":"〒160-0023","address":"東京都新宿区西新宿3-20-2 東京ｵﾍﾟﾗｼﾃｨ2F","tel":"03-5334-6066","mapUrl":"https://maps.google.co.jp/maps?q=%e3%81%8f%e3%81%be%e3%81%96%e3%82%8f%e6%9b%b8%e5%ba%97%e3%82%aa%e3%83%9a%e3%83%a9%e3%82%b7%e3%83%86%e3%82%a3%e5%ba%97","position":{"lat":"35.68328","long":"139.6841283"}},{"name":"ブックファースト新宿店","post":"〒160-0023","address":"東京都新宿区西新宿1-7-3 ﾓｰﾄﾞ学園ｺｸｰﾝﾀﾜｰ内","tel":"03-5339-7688","mapUrl":"https://maps.google.co.jp/maps?q=%e3%83%96%e3%83%83%e3%82%af%e3%83%95%e3%82%a1%e3%83%bc%e3%82%b9%e3%83%88%e6%96%b0%e5%ae%bf%e5%ba%97","position":{"lat":"35.6915849","long":"139.694772"}},{"name":"紀伊國屋書店新宿本店","post":"〒162-0022","address":"東京都新宿区新宿3-17-7","tel":"03-3354-0131","mapUrl":"https://maps.google.co.jp/maps?q=%e7%b4%80%e4%bc%8a%e5%9c%8b%e5%b1%8b%e6%9b%b8%e5%ba%97%e6%96%b0%e5%ae%bf%e6%9c%ac%e5%ba%97","position":{"lat":"35.6922491","long":"139.7007954"}},{"name":"ブックファースト中野店","post":"〒164-0001","address":"東京都中野区中野4-3-1 中野ｻﾝｸｫｰﾚ1F･2F","tel":"03-3319-5161","mapUrl":"https://maps.google.co.jp/maps?q=%e3%83%96%e3%83%83%e3%82%af%e3%83%95%e3%82%a1%e3%83%bc%e3%82%b9%e3%83%88%e4%b8%ad%e9%87%8e%e5%ba%97","position":{"lat":"35.7088101","long":"139.6624122"}},{"name":"文教堂書店中野坂上店","post":"〒164-0012","address":"東京都中野区本町2-46-1 中野坂上ｻﾝﾌﾞﾗｲﾄﾂｲﾝ1F","tel":"03-5358-5285","mapUrl":"https://maps.google.co.jp/maps?q=%e6%96%87%e6%95%99%e5%a0%82%e6%9b%b8%e5%ba%97%e4%b8%ad%e9%87%8e%e5%9d%82%e4%b8%8a%e5%ba%97","position":{"lat":"35.6965856","long":"139.6800642"}},{"name":"書泉芳林堂書店高田馬場店","post":"〒169-0075","address":"東京都新宿区高田馬場1-26-5 FIﾋﾞﾙ","tel":"03-3208-0241","mapUrl":"https://maps.google.co.jp/maps?q=%e6%9b%b8%e6%b3%89%e8%8a%b3%e6%9e%97%e5%a0%82%e6%9b%b8%e5%ba%97%e9%ab%98%e7%94%b0%e9%a6%ac%e5%a0%b4%e5%ba%97","position":{"lat":"35.712863","long":"139.7030041"}},{"name":"旭屋書店池袋店","post":"〒171-0021","address":"東京都豊島区西池袋1-1-25 東武百貨店池袋店ﾌﾟﾗｻﾞ館7F","tel":"03-3986-0311","mapUrl":"https://maps.google.co.jp/maps?q=%e6%97%ad%e5%b1%8b%e6%9b%b8%e5%ba%97%e6%b1%a0%e8%a2%8b%e5%ba%97","position":{"lat":"35.7288044","long":"139.7076175"}},{"name":"三省堂書店池袋本店","post":"〒171-0022","address":"東京都豊島区南池袋1-28-1 西武池袋本店書籍館･別館","tel":"03-6864-8900","mapUrl":"https://maps.google.co.jp/maps?q=%e4%b8%89%e7%9c%81%e5%a0%82%e6%9b%b8%e5%ba%97%e6%b1%a0%e8%a2%8b%e6%9c%ac%e5%ba%97","position":{"lat":"35.7276873","long":"139.709253"}},{"name":"ジュンク堂書店池袋本店","post":"〒171-0022","address":"東京都豊島区南池袋2-15-5","tel":"03-5956-6111","mapUrl":"https://maps.google.co.jp/maps?q=%e3%82%b8%e3%83%a5%e3%83%b3%e3%82%af%e5%a0%82%e6%9b%b8%e5%ba%97%e6%b1%a0%e8%a2%8b%e6%9c%ac%e5%ba%97","position":{"lat":"35.72684","long":"139.7100553"}},{"name":"ジュンク堂書店大泉学園店","post":"〒178-0063","address":"東京都練馬区東大泉1-28-1 ｸﾞﾗﾝｴﾐｵ3F","tel":"03-5947-3955","mapUrl":"https://maps.google.co.jp/maps?q=%e3%82%b8%e3%83%a5%e3%83%b3%e3%82%af%e5%a0%82%e6%9b%b8%e5%ba%97%e5%a4%a7%e6%b3%89%e5%ad%a6%e5%9c%92%e5%ba%97","position":{"lat":"35.7494392","long":"139.5852746"}},{"name":"ヨドバシカメラ吉祥寺店","post":"〒180-0004","address":"東京都武蔵野市吉祥寺本町1-19-1","tel":"0422-29-1010","mapUrl":"https://maps.google.co.jp/maps?q=%e3%83%a8%e3%83%89%e3%83%90%e3%82%b7%e3%82%ab%e3%83%a1%e3%83%a9%e5%90%89%e7%a5%a5%e5%af%ba%e5%ba%97","position":{"lat":"35.7048111","long":"139.5791696"}},{"name":"ジュンク堂書店吉祥寺店","post":"〒180-0004","address":"東京都武蔵野市吉祥寺本町1-11-5 ｺﾋﾟｽ吉祥寺6F･7F","tel":"0422-28-5333","mapUrl":"https://maps.google.co.jp/maps?q=%e3%82%b8%e3%83%a5%e3%83%b3%e3%82%af%e5%a0%82%e6%9b%b8%e5%ba%97%e5%90%89%e7%a5%a5%e5%af%ba%e5%ba%97","position":{"lat":"35.7049859","long":"139.5772834"}},{"name":"ブックス・ルーエ","post":"〒180-0004","address":"東京都武蔵野市吉祥寺本町1-14-3","tel":"0422-22-5677","mapUrl":"https://maps.google.co.jp/maps?q=%e3%83%96%e3%83%83%e3%82%af%e3%82%b9%e3%83%bb%e3%83%ab%e3%83%bc%e3%82%a8","position":{"lat":"35.7046552","long":"139.578166"}},{"name":"啓文堂書店三鷹店","post":"〒181-0013","address":"東京都三鷹市下連雀3-35-1 三鷹ｺﾗﾙ3F","tel":"0422-79-5840","mapUrl":"https://maps.google.co.jp/maps?q=%e5%95%93%e6%96%87%e5%a0%82%e6%9b%b8%e5%ba%97%e4%b8%89%e9%b7%b9%e5%ba%97","position":{"lat":"35.7016492","long":"139.5586487"}},{"name":"書原つつじヶ丘店","post":"〒182-0006","address":"東京都調布市西つつじｹ丘3-37-2 横田ﾌｧｲﾌﾞB1F","tel":"0424-81-6421","mapUrl":"https://maps.google.co.jp/maps?q=%e6%9b%b8%e5%8e%9f%e3%81%a4%e3%81%a4%e3%81%98%e3%83%b6%e4%b8%98%e5%ba%97","position":{"lat":"35.6587643","long":"139.5728766"}},{"name":"くまざわ書店調布店","post":"〒182-0024","address":"東京都調布市布田4-4-22 ﾄﾘｴ京王調布A館4F","tel":"042-490-2052","mapUrl":"https://maps.google.co.jp/maps?q=%e3%81%8f%e3%81%be%e3%81%96%e3%82%8f%e6%9b%b8%e5%ba%97%e8%aa%bf%e5%b8%83%e5%ba%97","position":{"lat":"35.651612","long":"139.5431319"}},{"name":"真光書店本店","post":"〒182-0024","address":"東京都調布市布田1-36-8","tel":"0424-87-2222","mapUrl":"https://maps.google.co.jp/maps?q=%e7%9c%9f%e5%85%89%e6%9b%b8%e5%ba%97%e6%9c%ac%e5%ba%97","position":{"lat":"35.6532693","long":"139.5420611"}},{"name":"啓文堂書店府中本店","post":"〒183-0055","address":"東京都府中市府中町1-2-1 京王府中SC駅ﾋﾞﾙ1F","tel":"042-366-3151","mapUrl":"https://maps.google.co.jp/maps?q=%e5%95%93%e6%96%87%e5%a0%82%e6%9b%b8%e5%ba%97%e5%ba%9c%e4%b8%ad%e6%9c%ac%e5%ba%97","position":{"lat":"35.6723832","long":"139.4772928"}},{"name":"紀伊國屋書店国分寺店","post":"〒185-0021","address":"東京都国分寺市南町3-20-3 CELEO国分寺8F","tel":"042-325-3991","mapUrl":"https://maps.google.co.jp/maps?q=%e7%b4%80%e4%bc%8a%e5%9c%8b%e5%b1%8b%e6%9b%b8%e5%ba%97%e5%9b%bd%e5%88%86%e5%af%ba%e5%ba%97","position":{"lat":"35.6999274","long":"139.4789369"}},{"name":"オリオン書房ノルテ店","post":"〒190-0012","address":"東京都立川市曙町2-42-1 ﾊﾟｰｸｱﾍﾞﾆｭｰ3F","tel":"042-522-1231","mapUrl":"https://maps.google.co.jp/maps?q=%e3%82%aa%e3%83%aa%e3%82%aa%e3%83%b3%e6%9b%b8%e6%88%bf%e3%83%8e%e3%83%ab%e3%83%86%e5%ba%97","position":{"lat":"35.7008144","long":"139.4097532"}},{"name":"未来屋書店日の出店","post":"〒190-0182","address":"東京都西多摩郡日の出町平井三吉野桜木557 ｲｵﾝﾓｰﾙ日の出1F","tel":"042-597-6255","mapUrl":"https://maps.google.co.jp/maps?q=%e6%9c%aa%e6%9d%a5%e5%b1%8b%e6%9b%b8%e5%ba%97%e6%97%a5%e3%81%ae%e5%87%ba%e5%ba%97","position":{"lat":"35.7344309","long":"139.2714316"}},{"name":"紀伊國屋書店明星大学ブックセンター","post":"〒191-0042","address":"東京都日野市程久保2-1-1","tel":"042-599-7121","mapUrl":"https://maps.google.co.jp/maps?q=%e7%b4%80%e4%bc%8a%e5%9c%8b%e5%b1%8b%e6%9b%b8%e5%ba%97%e6%98%8e%e6%98%9f%e5%a4%a7%e5%ad%a6%e3%83%96%e3%83%83%e3%82%af%e3%82%bb%e3%83%b3%e3%82%bf%e3%83%bc","position":{"lat":"35.5034243","long":"139.184961"}},{"name":"有隣堂八王子店","post":"〒192-0083","address":"東京都八王子市旭町1-1","tel":"042-655-2311","mapUrl":"https://maps.google.co.jp/maps?q=%e6%9c%89%e9%9a%a3%e5%a0%82%e5%85%ab%e7%8e%8b%e5%ad%90%e5%ba%97","position":{"lat":"35.6561454","long":"139.3370204"}},{"name":"くまざわ書店本店","post":"〒192-0083","address":"東京都八王子市旭町2-11","tel":"0426-25-1201","mapUrl":"https://maps.google.co.jp/maps?q=%e3%81%8f%e3%81%be%e3%81%96%e3%82%8f%e6%9b%b8%e5%ba%97%e6%9c%ac%e5%ba%97","position":{"lat":"35.6350058","long":"139.1630354"}},{"name":"有隣堂八王子購買部","post":"〒192-8550","address":"東京都八王子市片倉町1404-1","tel":"0426-35-5060","mapUrl":"https://maps.google.co.jp/maps?q=%e6%9c%89%e9%9a%a3%e5%a0%82%e5%85%ab%e7%8e%8b%e5%ad%90%e8%b3%bc%e8%b2%b7%e9%83%a8","position":{"lat":"35.6255704","long":"139.3074128"}},{"name":"久美堂本店","post":"〒194-0013","address":"東京都町田市原町田6-11-10","tel":"042-725-1330","mapUrl":"https://maps.google.co.jp/maps?q=%e4%b9%85%e7%be%8e%e5%a0%82%e6%9c%ac%e5%ba%97","position":{"lat":"35.5444287","long":"139.443887"}},{"name":"ヨドバシカメラ町田駅前店","post":"〒194-0013","address":"東京都町田市原町田1-1-11","tel":"042-721-1010","mapUrl":"https://maps.google.co.jp/maps?q=%e3%83%a8%e3%83%89%e3%83%90%e3%82%b7%e3%82%ab%e3%83%a1%e3%83%a9%e7%94%ba%e7%94%b0%e9%a7%85%e5%89%8d%e5%ba%97","position":{"lat":"35.5421411","long":"139.4426066"}},{"name":"有隣堂町田モディ店","post":"〒194-0013","address":"東京都町田市原町田6-2-6 町田ﾓﾃﾞｨ8F","tel":"042-739-5231","mapUrl":"https://maps.google.co.jp/maps?q=%e6%9c%89%e9%9a%a3%e5%a0%82%e7%94%ba%e7%94%b0%e3%83%a2%e3%83%87%e3%82%a3%e5%ba%97","position":{"lat":"35.5433018","long":"139.4429811"}},{"name":"ブックス・タマ小作店","post":"〒205-0002","address":"東京都羽村市栄町1-3-11","tel":"042-555-3904","mapUrl":"https://maps.google.co.jp/maps?q=%e3%83%96%e3%83%83%e3%82%af%e3%82%b9%e3%83%bb%e3%82%bf%e3%83%9e%e5%b0%8f%e4%bd%9c%e5%ba%97","position":{"lat":"35.775823","long":"139.3035663"}},{"name":"アカデミアくまざわ書店桜ヶ丘店","post":"〒206-0011","address":"東京都多摩市関戸1-11-1 聖蹟桜ヶ丘ｼｮｯﾋﾟﾝｸﾞｾﾝﾀｰA館7F","tel":"042-337-2531","mapUrl":"https://maps.google.co.jp/maps?q=%e3%82%a2%e3%82%ab%e3%83%87%e3%83%9f%e3%82%a2%e3%81%8f%e3%81%be%e3%81%96%e3%82%8f%e6%9b%b8%e5%ba%97%e6%a1%9c%e3%83%b6%e4%b8%98%e5%ba%97","position":{"lat":"35.6506624","long":"139.4452143"}},{"name":"丸善多摩センター店","post":"〒206-0033","address":"東京都多摩市落合1-46-1 多摩ｾﾝﾀｰ三越5F","tel":"042-355-3220","mapUrl":"https://maps.google.co.jp/maps?q=%e4%b8%b8%e5%96%84%e5%a4%9a%e6%91%a9%e3%82%bb%e3%83%b3%e3%82%bf%e3%83%bc%e5%ba%97","position":{"lat":"35.6225659","long":"139.4226393"}},{"name":"コーチャンフォー若葉台店","post":"〒206-0824","address":"東京都稲城市若葉台2-9-2","tel":"042-350-2800","mapUrl":"https://maps.google.co.jp/maps?q=%e3%82%b3%e3%83%bc%e3%83%81%e3%83%a3%e3%83%b3%e3%83%95%e3%82%a9%e3%83%bc%e8%8b%a5%e8%91%89%e5%8f%b0%e5%ba%97","position":{"lat":"35.6235215","long":"139.4710852"}},{"name":"オリオン書房むさし村山店","post":"〒208-0022","address":"東京都武蔵村山市榎1-1-3-3011 ｲｵﾝﾓｰﾙむさし村山ﾐｭｰ3F","tel":"042-567-6911","mapUrl":"https://maps.google.co.jp/maps?q=%e3%82%aa%e3%83%aa%e3%82%aa%e3%83%b3%e6%9b%b8%e6%88%bf%e3%82%80%e3%81%95%e3%81%97%e6%9d%91%e5%b1%b1%e5%ba%97","position":{"lat":"35.7468298","long":"139.3833763"}},{"name":"ヨドバシカメラマルチメディア川崎ルフロン","post":"〒210-0024","address":"神奈川県川崎市川崎区日進町1-11 ﾙﾌﾛﾝ3F･4F","tel":"044-223-1010","mapUrl":"https://maps.google.co.jp/maps?q=%e3%83%a8%e3%83%89%e3%83%90%e3%82%b7%e3%82%ab%e3%83%a1%e3%83%a9%e3%83%9e%e3%83%ab%e3%83%81%e3%83%a1%e3%83%87%e3%82%a3%e3%82%a2%e5%b7%9d%e5%b4%8e%e3%83%ab%e3%83%95%e3%83%ad%e3%83%b3","position":{"lat":"35.5294723","long":"139.6947564"}},{"name":"ヨドバシカメラＹＡＣ川崎","post":"〒210-0821","address":"神奈川県川崎市川崎区殿町3-25-1","tel":"044-281-1010","mapUrl":"https://maps.google.co.jp/maps?q=%e3%83%a8%e3%83%89%e3%83%90%e3%82%b7%e3%82%ab%e3%83%a1%e3%83%a9%ef%bc%b9%ef%bc%a1%ef%bc%a3%e5%b7%9d%e5%b4%8e","position":{"lat":"35.5334967","long":"139.6955779"}},{"name":"スーパーブックス住吉書房武蔵中原店","post":"〒211-0053","address":"神奈川県川崎市中原区上小田中4-2-1 ﾋﾞｰﾝｽﾞ武蔵中原2F","tel":"044-753-5678","mapUrl":"https://maps.google.co.jp/maps?q=%e3%82%b9%e3%83%bc%e3%83%91%e3%83%bc%e3%83%96%e3%83%83%e3%82%af%e3%82%b9%e4%bd%8f%e5%90%89%e6%9b%b8%e6%88%bf%e6%ad%a6%e8%94%b5%e4%b8%ad%e5%8e%9f%e5%ba%97","position":{"lat":"35.5811667","long":"139.639217"}},{"name":"丸善ラゾーナ川崎店","post":"〒212-8576","address":"神奈川県川崎市幸区堀川町72-1 ﾗｿﾞｰﾅ川崎ﾌﾟﾗｻﾞ1階","tel":"044-520-1869","mapUrl":"https://maps.google.co.jp/maps?q=%e4%b8%b8%e5%96%84%e3%83%a9%e3%82%be%e3%83%bc%e3%83%8a%e5%b7%9d%e5%b4%8e%e5%ba%97","position":{"lat":"35.5322524","long":"139.693481"}},{"name":"文教堂書店溝ノ口本店","post":"〒213-0011","address":"神奈川県川崎市高津区久本3-1-28","tel":"044-812-0063","mapUrl":"https://maps.google.co.jp/maps?q=%e6%96%87%e6%95%99%e5%a0%82%e6%9b%b8%e5%ba%97%e6%ba%9d%e3%83%8e%e5%8f%a3%e6%9c%ac%e5%ba%97","position":{"lat":"35.5980111","long":"139.6107967"}},{"name":"丸善ブックセンター明治大学生田店","post":"〒214-8571","address":"神奈川県川崎市多摩区東三田1-1-1 明治大学生田校舎内","tel":"044-920-6253","mapUrl":"https://maps.google.co.jp/maps?q=%e4%b8%b8%e5%96%84%e3%83%96%e3%83%83%e3%82%af%e3%82%bb%e3%83%b3%e3%82%bf%e3%83%bc%e6%98%8e%e6%b2%bb%e5%a4%a7%e5%ad%a6%e7%94%9f%e7%94%b0%e5%ba%97","position":{"lat":"35.61285","long":"139.5469382"}},{"name":"有隣堂横浜駅西口店","post":"〒220-0004","address":"神奈川県横浜市西区北幸1-1-8 ｴｷﾆｱ横浜B3F","tel":"045-311-6265","mapUrl":"https://maps.google.co.jp/maps?q=%e6%9c%89%e9%9a%a3%e5%a0%82%e6%a8%aa%e6%b5%9c%e9%a7%85%e8%a5%bf%e5%8f%a3%e5%ba%97","position":{"lat":"35.4672202","long":"139.6190748"}},{"name":"ヨドバシカメラマルチメディア横浜店","post":"〒220-0004","address":"神奈川県横浜市西区北幸1-2-7","tel":"045-313-1010","mapUrl":"https://maps.google.co.jp/maps?q=%e3%83%a8%e3%83%89%e3%83%90%e3%82%b7%e3%82%ab%e3%83%a1%e3%83%a9%e3%83%9e%e3%83%ab%e3%83%81%e3%83%a1%e3%83%87%e3%82%a3%e3%82%a2%e6%a8%aa%e6%b5%9c%e5%ba%97","position":{"lat":"35.4675942","long":"139.6182192"}},{"name":"丸善横浜みなとみらい店","post":"〒220-0012","address":"神奈川県横浜市西区みなとみらい2-3-2 みなとみらい東急ｽｸｴｱ3階","tel":"045-323-9660","mapUrl":"https://maps.google.co.jp/maps?q=%e4%b8%b8%e5%96%84%e6%a8%aa%e6%b5%9c%e3%81%bf%e3%81%aa%e3%81%a8%e3%81%bf%e3%82%89%e3%81%84%e5%ba%97","position":{"lat":"35.4563713","long":"139.6307611"}},{"name":"くまざわ書店ランドマーク店","post":"〒220-8105","address":"神奈川県横浜市西区みなとみらい2-2-1 ﾗﾝﾄﾞﾏｰｸﾌﾟﾗｻﾞ2F","tel":"045-683-1021","mapUrl":"https://maps.google.co.jp/maps?q=%e3%81%8f%e3%81%be%e3%81%96%e3%82%8f%e6%9b%b8%e5%ba%97%e3%83%a9%e3%83%b3%e3%83%89%e3%83%9e%e3%83%bc%e3%82%af%e5%ba%97","position":{"lat":"35.4551717","long":"139.6295642"}},{"name":"紀伊國屋書店横浜店","post":"〒220-8510","address":"神奈川県横浜市西区高島2-18-1 そごう横浜店7F","tel":"045-450-5901","mapUrl":"https://maps.google.co.jp/maps?q=%e7%b4%80%e4%bc%8a%e5%9c%8b%e5%b1%8b%e6%9b%b8%e5%ba%97%e6%a8%aa%e6%b5%9c%e5%ba%97","position":{"lat":"35.4654249","long":"139.6229067"}},{"name":"神奈川大学生協","post":"〒221-0802","address":"神奈川県横浜市神奈川区六角橋4-7-3","tel":"045-481-4012","mapUrl":"https://maps.google.co.jp/maps?q=%e7%a5%9e%e5%a5%88%e5%b7%9d%e5%a4%a7%e5%ad%a6%e7%94%9f%e5%8d%94","position":{"lat":"35.4852501","long":"139.6166837"}},{"name":"三省堂新横浜店","post":"〒222-0033","address":"神奈川県横浜市港北区新横浜2-100-45 ｷｭｰﾋﾞｯｸﾌﾟﾗｻﾞ新横浜8F","tel":"045-478-5520","mapUrl":"https://maps.google.co.jp/maps?q=%e4%b8%89%e7%9c%81%e5%a0%82%e6%96%b0%e6%a8%aa%e6%b5%9c%e5%ba%97","position":{"lat":"35.5076633","long":"139.6150591"}},{"name":"くまざわ書店アピタテラス横浜綱島店","post":"〒223-0052","address":"神奈川県横浜市港北区綱島東4-3-17 ｱﾋﾟﾀﾃﾗｽ横浜綱島2F 219区画","tel":"045-533-4072","mapUrl":"https://maps.google.co.jp/maps?q=%e3%81%8f%e3%81%be%e3%81%96%e3%82%8f%e6%9b%b8%e5%ba%97%e3%82%a2%e3%83%94%e3%82%bf%e3%83%86%e3%83%a9%e3%82%b9%e6%a8%aa%e6%b5%9c%e7%b6%b1%e5%b3%b6%e5%ba%97","position":{"lat":"35.5426973","long":"139.6394279"}},{"name":"天一書房日吉店","post":"〒223-0061","address":"神奈川県横浜市港北区日吉2-1-1 日吉東急百貨店南館3F","tel":"045-565-0211","mapUrl":"https://maps.google.co.jp/maps?q=%e5%a4%a9%e4%b8%80%e6%9b%b8%e6%88%bf%e6%97%a5%e5%90%89%e5%ba%97","position":{"lat":"35.5530237","long":"139.644649"}},{"name":"アカデミア港北店","post":"〒224-0003","address":"神奈川県横浜市都筑区中川中央1-25-1 ﾉｰｽﾎﾟｰﾄﾓｰﾙ3F","tel":"045-914-3320","mapUrl":"https://maps.google.co.jp/maps?q=%e3%82%a2%e3%82%ab%e3%83%87%e3%83%9f%e3%82%a2%e6%b8%af%e5%8c%97%e5%ba%97","position":{"lat":"35.5514823","long":"139.5768166"}},{"name":"紀伊國屋書店ららぽーと横浜店","post":"〒224-0053","address":"神奈川県横浜市都筑区池辺町4035-1 ららぽｰと横浜3F 35090","tel":"045-938-4481","mapUrl":"https://maps.google.co.jp/maps?q=%e7%b4%80%e4%bc%8a%e5%9c%8b%e5%b1%8b%e6%9b%b8%e5%ba%97%e3%82%89%e3%82%89%e3%81%bd%e3%83%bc%e3%81%a8%e6%a8%aa%e6%b5%9c%e5%ba%97","position":{"lat":"35.5171086","long":"139.5643241"}},{"name":"ブックファースト青葉台店","post":"〒227-8555","address":"神奈川県横浜市青葉区青葉台2-1-1 青葉台東急ｽｸｴｱSouth-1別館","tel":"045-989-1781","mapUrl":"https://maps.google.co.jp/maps?q=%e3%83%96%e3%83%83%e3%82%af%e3%83%95%e3%82%a1%e3%83%bc%e3%82%b9%e3%83%88%e9%9d%92%e8%91%89%e5%8f%b0%e5%ba%97","position":{"lat":"35.542655","long":"139.5136797"}},{"name":"有隣堂本店書籍館","post":"〒231-8623","address":"神奈川県横浜市中区伊勢佐木町1-4-1","tel":"045-261-1231","mapUrl":"https://maps.google.co.jp/maps?q=%e6%9c%89%e9%9a%a3%e5%a0%82%e6%9c%ac%e5%ba%97%e6%9b%b8%e7%b1%8d%e9%a4%a8","position":{"lat":"35.444583","long":"139.6311703"}},{"name":"くまざわ書店横須賀店","post":"〒238-0041","address":"神奈川県横須賀市本町2-1-12 ｺｰｽｶﾍﾞｲｻｲﾄﾞｽﾄｱｰｽﾞ4F","tel":"046-821-2403","mapUrl":"https://maps.google.co.jp/maps?q=%e3%81%8f%e3%81%be%e3%81%96%e3%82%8f%e6%9b%b8%e5%ba%97%e6%a8%aa%e9%a0%88%e8%b3%80%e5%ba%97","position":{"lat":"35.2832417","long":"139.6605583"}},{"name":"くまざわ書店ジョイナステラス二俣川店","post":"〒241-0821","address":"神奈川県横浜市旭区二俣川2-50-14 JOINUS TERRACE5F","tel":"045-360-1177","mapUrl":"https://maps.google.co.jp/maps?q=%e3%81%8f%e3%81%be%e3%81%96%e3%82%8f%e6%9b%b8%e5%ba%97%e3%82%b8%e3%83%a7%e3%82%a4%e3%83%8a%e3%82%b9%e3%83%86%e3%83%a9%e3%82%b9%e4%ba%8c%e4%bf%a3%e5%b7%9d%e5%ba%97","position":{"lat":"35.462906","long":"139.5299014"}},{"name":"有隣堂厚木店","post":"〒243-0018","address":"神奈川県厚木市中町2-6 三成ほていやﾋﾞﾙ","tel":"046-223-4111","mapUrl":"https://maps.google.co.jp/maps?q=%e6%9c%89%e9%9a%a3%e5%a0%82%e5%8e%9a%e6%9c%a8%e5%ba%97","position":{"lat":"35.4406782","long":"139.3617058"}},{"name":"有隣堂戸塚モディ店","post":"〒244-0003","address":"神奈川県横浜市戸塚区戸塚町10 戸塚ﾓﾃﾞｨ4F","tel":"045-881-2661","mapUrl":"https://maps.google.co.jp/maps?q=%e6%9c%89%e9%9a%a3%e5%a0%82%e6%88%b8%e5%a1%9a%e3%83%a2%e3%83%87%e3%82%a3%e5%ba%97","position":{"lat":"35.4014195","long":"139.5325447"}},{"name":"有隣堂テラスモール湘南店","post":"〒251-0047","address":"神奈川県藤沢市辻堂神台1-3-1 ﾃﾗｽﾓｰﾙ湘南4F","tel":"0466-38-2121","mapUrl":"https://maps.google.co.jp/maps?q=%e6%9c%89%e9%9a%a3%e5%a0%82%e3%83%86%e3%83%a9%e3%82%b9%e3%83%a2%e3%83%bc%e3%83%ab%e6%b9%98%e5%8d%97%e5%ba%97","position":{"lat":"35.3374027","long":"139.4435434"}},{"name":"ジュンク堂書店藤沢店","post":"〒251-0052","address":"神奈川県藤沢市藤沢559 ﾋﾞｯｸｶﾒﾗ7F･8F","tel":"0466-52-1211","mapUrl":"https://maps.google.co.jp/maps?q=%e3%82%b8%e3%83%a5%e3%83%b3%e3%82%af%e5%a0%82%e6%9b%b8%e5%ba%97%e8%97%a4%e6%b2%a2%e5%ba%97","position":{"lat":"35.3396179","long":"139.4860226"}},{"name":"有隣堂藤沢店","post":"〒251-0055","address":"神奈川県藤沢市南藤沢2-1-1 名店ﾋﾞﾙ内","tel":"0466-26-1411","mapUrl":"https://maps.google.co.jp/maps?q=%e6%9c%89%e9%9a%a3%e5%a0%82%e8%97%a4%e6%b2%a2%e5%ba%97","position":{"lat":"35.3386369","long":"139.4866605"}},{"name":"ACADEMIAくまざわ書店橋本店","post":"〒252-0146","address":"神奈川県相模原市緑区大山町1-22 ｱﾘｵ橋本店1F","tel":"042-700-7020","mapUrl":"https://maps.google.co.jp/maps?q=ACADEMIA%e3%81%8f%e3%81%be%e3%81%96%e3%82%8f%e6%9b%b8%e5%ba%97%e6%a9%8b%e6%9c%ac%e5%ba%97","position":{"lat":"35.5903728","long":"139.3480763"}},{"name":"くまざわ書店相模大野店","post":"〒252-0303","address":"神奈川県相模原市南区相模大野3-8-1 相模大野ｽﾃｰｼｮﾝｽｸｴｱA棟6F","tel":"042-767-1285","mapUrl":"https://maps.google.co.jp/maps?q=%e3%81%8f%e3%81%be%e3%81%96%e3%82%8f%e6%9b%b8%e5%ba%97%e7%9b%b8%e6%a8%a1%e5%a4%a7%e9%87%8e%e5%ba%97","position":{"lat":"35.5315921","long":"139.4352259"}},{"name":"紀伊國屋書店神奈川大学ブックセンター","post":"〒259-1205","address":"神奈川県平塚市土屋2946 神奈川大学平塚ｷｬﾝﾊﾟｽ厚生棟内","tel":"0463-59-4010","mapUrl":"https://maps.google.co.jp/maps?q=%e7%b4%80%e4%bc%8a%e5%9c%8b%e5%b1%8b%e6%9b%b8%e5%ba%97%e7%a5%9e%e5%a5%88%e5%b7%9d%e5%a4%a7%e5%ad%a6%e3%83%96%e3%83%83%e3%82%af%e3%82%bb%e3%83%b3%e3%82%bf%e3%83%bc","position":{"lat":"35.3267605","long":"138.481742"}},{"name":"紀伊國屋書店東海大学ブックセンター","post":"〒259-1207","address":"神奈川県平塚市北金目1117 東海大学8号館内","tel":"0463-50-1250","mapUrl":"https://maps.google.co.jp/maps?q=%e7%b4%80%e4%bc%8a%e5%9c%8b%e5%b1%8b%e6%9b%b8%e5%ba%97%e6%9d%b1%e6%b5%b7%e5%a4%a7%e5%ad%a6%e3%83%96%e3%83%83%e3%82%af%e3%82%bb%e3%83%b3%e3%82%bf%e3%83%bc","position":{"lat":"35.3649644","long":"139.2702772"}},{"name":"戸田書店長岡店","post":"〒940-2024","address":"新潟県長岡市堺町字浦田33-1","tel":"0258-22-5911","mapUrl":"https://maps.google.co.jp/maps?q=%e6%88%b8%e7%94%b0%e6%9b%b8%e5%ba%97%e9%95%b7%e5%b2%a1%e5%ba%97","position":{"lat":"37.4557026","long":"138.8066305"}},{"name":"文信堂書店技大店","post":"〒940-2137","address":"新潟県長岡市上富岡町1603-1 長岡技術大学売店","tel":"0258-46-6437","mapUrl":"https://maps.google.co.jp/maps?q=%e6%96%87%e4%bf%a1%e5%a0%82%e6%9b%b8%e5%ba%97%e6%8a%80%e5%a4%a7%e5%ba%97","position":{"lat":"37.4251194","long":"138.7769527"}},{"name":"ジュンク堂書店新潟店","post":"〒950-0911","address":"新潟県新潟市中央区笹口1-1 ﾌﾟﾗｰｶ1 1F･B1F","tel":"025-374-4411","mapUrl":"https://maps.google.co.jp/maps?q=%e3%82%b8%e3%83%a5%e3%83%b3%e3%82%af%e5%a0%82%e6%9b%b8%e5%ba%97%e6%96%b0%e6%bd%9f%e5%ba%97","position":{"lat":"37.9108166","long":"139.0618997"}},{"name":"知遊堂亀貝店","post":"〒950-2033","address":"新潟県新潟市西区亀貝521番地","tel":"025-211-1858","mapUrl":"https://maps.google.co.jp/maps?q=%e7%9f%a5%e9%81%8a%e5%a0%82%e4%ba%80%e8%b2%9d%e5%ba%97","position":{"lat":"37.8649347","long":"138.9793007"}},{"name":"知遊堂三条店","post":"〒955-0083","address":"新潟県三条市荒町2-25-4","tel":"0256-36-7171","mapUrl":"https://maps.google.co.jp/maps?q=%e7%9f%a5%e9%81%8a%e5%a0%82%e4%b8%89%e6%9d%a1%e5%ba%97","position":{"lat":"37.642248","long":"138.9529503"}},{"name":"紀伊國屋書店富山店","post":"〒930-0083","address":"富山県富山市総曲輪3-8-6 総曲輪ﾌｪﾘｵ7F","tel":"076-491-7031","mapUrl":"https://maps.google.co.jp/maps?q=%e7%b4%80%e4%bc%8a%e5%9c%8b%e5%b1%8b%e6%9b%b8%e5%ba%97%e5%af%8c%e5%b1%b1%e5%ba%97","position":{"lat":"36.6892452","long":"137.2109695"}},{"name":"文苑堂書店富山豊田店","post":"〒931-8313","address":"富山県豊田町2-8-14","tel":"076-433-8150","mapUrl":"https://maps.google.co.jp/maps?q=%e6%96%87%e8%8b%91%e5%a0%82%e6%9b%b8%e5%ba%97%e5%af%8c%e5%b1%b1%e8%b1%8a%e7%94%b0%e5%ba%97","position":{"lat":"36.723374","long":"137.2339184"}},{"name":"文苑堂書店福田本店","post":"〒933-0829","address":"富山県高岡市福田43","tel":"0766-27-7800","mapUrl":"https://maps.google.co.jp/maps?q=%e6%96%87%e8%8b%91%e5%a0%82%e6%9b%b8%e5%ba%97%e7%a6%8f%e7%94%b0%e6%9c%ac%e5%ba%97","position":{"lat":"36.73547","long":"136.9805063"}},{"name":"BOOKSなかだ本店専門書館","post":"〒939-8212","address":"富山県富山市掛尾町180-1","tel":"076-492-1197","mapUrl":"https://maps.google.co.jp/maps?q=BOOKS%e3%81%aa%e3%81%8b%e3%81%a0%e6%9c%ac%e5%ba%97%e5%b0%82%e9%96%80%e6%9b%b8%e9%a4%a8","position":{"lat":"36.6671767","long":"137.2093371"}},{"name":"うつのみや金沢香林坊店","post":"〒920-0961","address":"石川県金沢市香林坊2-1-1 香林坊東急ｽｸｴｱBF","tel":"076-234-8111","mapUrl":"https://maps.google.co.jp/maps?q=%e3%81%86%e3%81%a4%e3%81%ae%e3%81%bf%e3%82%84%e9%87%91%e6%b2%a2%e9%a6%99%e6%9e%97%e5%9d%8a%e5%ba%97","position":{"lat":"36.5624028","long":"136.6511048"}},{"name":"明文堂書店金沢ビーンズ店","post":"〒920-8203","address":"石川県金沢市鞍月5-158","tel":"076-239-4400","mapUrl":"https://maps.google.co.jp/maps?q=%e6%98%8e%e6%96%87%e5%a0%82%e6%9b%b8%e5%ba%97%e9%87%91%e6%b2%a2%e3%83%93%e3%83%bc%e3%83%b3%e3%82%ba%e5%ba%97","position":{"lat":"36.5990299","long":"136.6214718"}},{"name":"KITブックセンター","post":"〒921-8501","address":"石川県野々市市扇が丘7-1 金沢工業大学内","tel":"076-248-4454","mapUrl":"https://maps.google.co.jp/maps?q=KIT%e3%83%96%e3%83%83%e3%82%af%e3%82%bb%e3%83%b3%e3%82%bf%e3%83%bc","position":{"lat":"36.6138937","long":"136.5709801"}},{"name":"明文堂書店金沢野々市店","post":"〒921-8825","address":"石川県野々市市栗田5-461","tel":"076-294-0930","mapUrl":"https://maps.google.co.jp/maps?q=%e6%98%8e%e6%96%87%e5%a0%82%e6%9b%b8%e5%ba%97%e9%87%91%e6%b2%a2%e9%87%8e%e3%80%85%e5%b8%82%e5%ba%97","position":{"lat":"36.5152744","long":"136.606663"}},{"name":"明文堂書店小松ツリーズ","post":"〒923-0000","address":"石川県小松市沖周辺土地区画整理事業施工地区内4街区","tel":"0761-23-4280","mapUrl":"https://maps.google.co.jp/maps?q=%e6%98%8e%e6%96%87%e5%a0%82%e6%9b%b8%e5%ba%97%e5%b0%8f%e6%9d%be%e3%83%84%e3%83%aa%e3%83%bc%e3%82%ba","position":{"lat":"36.3964358","long":"136.4595646"}},{"name":"紀伊國屋書店福井店","post":"〒910-0006","address":"福井県福井市中央1-9-20 福井西武新館5F","tel":"077-628-9851","mapUrl":"https://maps.google.co.jp/maps?q=%e7%b4%80%e4%bc%8a%e5%9c%8b%e5%b1%8b%e6%9b%b8%e5%ba%97%e7%a6%8f%e4%ba%95%e5%ba%97","position":{"lat":"36.0615597","long":"136.2176477"}},{"name":"勝木書店新二の宮店","post":"〒910-0015","address":"福井県福井市二の宮5-18-8","tel":"077-627-4678","mapUrl":"https://maps.google.co.jp/maps?q=%e5%8b%9d%e6%9c%a8%e6%9b%b8%e5%ba%97%e6%96%b0%e4%ba%8c%e3%81%ae%e5%ae%ae%e5%ba%97","position":{"lat":"36.0870086","long":"136.2060068"}},{"name":"ジュンク堂書店岡島甲府店","post":"〒400-8660","address":"山梨県甲府市丸の内1-21-15 岡島百貨店6F","tel":"055-231-0606","mapUrl":"https://maps.google.co.jp/maps?q=%e3%82%b8%e3%83%a5%e3%83%b3%e3%82%af%e5%a0%82%e6%9b%b8%e5%ba%97%e5%b2%a1%e5%b3%b6%e7%94%b2%e5%ba%9c%e5%ba%97","position":{"lat":"35.6617165","long":"138.5684149"}},{"name":"戸田書店山梨中央店","post":"〒409-3821","address":"山梨県中央市下河東400 ﾛｯｸﾀｳﾝ山梨中央内","tel":"055-278-6811","mapUrl":"https://maps.google.co.jp/maps?q=%e6%88%b8%e7%94%b0%e6%9b%b8%e5%ba%97%e5%b1%b1%e6%a2%a8%e4%b8%ad%e5%a4%ae%e5%ba%97","position":{"lat":"35.6079084","long":"138.539207"}},{"name":"平安堂上田しおだ野店","post":"〒386-1103","address":"長野県上田市神畑502-1 ｸﾞﾘｰﾝﾊﾟｰｸしおだ野内","tel":"0268-29-5254","mapUrl":"https://maps.google.co.jp/maps?q=%e5%b9%b3%e5%ae%89%e5%a0%82%e4%b8%8a%e7%94%b0%e3%81%97%e3%81%8a%e3%81%a0%e9%87%8e%e5%ba%97","position":{"lat":"36.3831262","long":"138.2109743"}},{"name":"宮脇書店松本店","post":"〒390-0827","address":"長野県松本市出川2丁目3-1","tel":"0263-24-2435","mapUrl":"https://maps.google.co.jp/maps?q=%e5%ae%ae%e8%84%87%e6%9b%b8%e5%ba%97%e6%9d%be%e6%9c%ac%e5%ba%97","position":{"lat":"36.2170081","long":"137.9698244"}},{"name":"丸善松本店","post":"〒390-8507","address":"長野県松本市深志1-3-11 ｺﾝｸﾞﾛM･B1F･1F･2F","tel":"0263-31-8171","mapUrl":"https://maps.google.co.jp/maps?q=%e4%b8%b8%e5%96%84%e6%9d%be%e6%9c%ac%e5%ba%97","position":{"lat":"36.2296706","long":"137.9651214"}},{"name":"大垣書店岐阜高島屋店","post":"〒500-8525","address":"岐阜県岐阜市日ノ出町2-25 岐阜高島屋9階","tel":"058-262-5661","mapUrl":"https://maps.google.co.jp/maps?q=%e5%a4%a7%e5%9e%a3%e6%9b%b8%e5%ba%97%e5%b2%90%e9%98%9c%e9%ab%98%e5%b3%b6%e5%b1%8b%e5%ba%97","position":{"lat":"35.4184746","long":"136.7554953"}},{"name":"丸善岐阜店","post":"〒502-0882","address":"岐阜県岐阜市正木中1-2-1 ｲｵﾝﾓｰﾙﾏｰｻ21 3F","tel":"058-297-7008","mapUrl":"https://maps.google.co.jp/maps?q=%e4%b8%b8%e5%96%84%e5%b2%90%e9%98%9c%e5%ba%97","position":{"lat":"35.44841","long":"136.7433723"}},{"name":"カルコス岐阜本店","post":"〒502-0914","address":"岐阜県岐阜市菅生8-7-21","tel":"058-294-7500","mapUrl":"https://maps.google.co.jp/maps?q=%e3%82%ab%e3%83%ab%e3%82%b3%e3%82%b9%e5%b2%90%e9%98%9c%e6%9c%ac%e5%ba%97","position":{"lat":"35.4250505","long":"136.7313242"}},{"name":"アカデミア大垣店","post":"〒503-0015","address":"岐阜県大垣市林町6-80-21 ｱｸｱｳｫｰｸ大垣2F","tel":"0584-77-6450","mapUrl":"https://maps.google.co.jp/maps?q=%e3%82%a2%e3%82%ab%e3%83%87%e3%83%9f%e3%82%a2%e5%a4%a7%e5%9e%a3%e5%ba%97","position":{"lat":"35.3687763","long":"136.615141"}},{"name":"喜久屋書店大垣店","post":"〒503-0808","address":"岐阜県大垣市三塚町丹瀬463-1 ﾛｯｸｼﾃｨ大垣ｼｮｯﾋﾟﾝｸﾞｾﾝﾀｰ2F","tel":"0584-77-1717","mapUrl":"https://maps.google.co.jp/maps?q=%e5%96%9c%e4%b9%85%e5%b1%8b%e6%9b%b8%e5%ba%97%e5%a4%a7%e5%9e%a3%e5%ba%97","position":{"lat":"35.3648632","long":"136.6285404"}},{"name":"カルコス各務原店","post":"〒504-0942","address":"岐阜県各務原市小佐野町1-11","tel":"0583-89-7500","mapUrl":"https://maps.google.co.jp/maps?q=%e3%82%ab%e3%83%ab%e3%82%b3%e3%82%b9%e5%90%84%e5%8b%99%e5%8e%9f%e5%ba%97","position":{"lat":"35.390959","long":"136.8264443"}},{"name":"戸田書店富士店","post":"〒417-0055","address":"静岡県富士市永田町2-66","tel":"0545-51-5121","mapUrl":"https://maps.google.co.jp/maps?q=%e6%88%b8%e7%94%b0%e6%9b%b8%e5%ba%97%e5%af%8c%e5%a3%ab%e5%ba%97","position":{"lat":"35.163573","long":"138.6684513"}},{"name":"MARUZEN＆ジュンク堂書店新静岡店","post":"〒420-0839","address":"静岡県静岡市葵区鷹匠1-1-1 新静岡ｾﾉﾊﾞ5F","tel":"054-275-2777","mapUrl":"https://maps.google.co.jp/maps?q=MARUZEN%ef%bc%86%e3%82%b8%e3%83%a5%e3%83%b3%e3%82%af%e5%a0%82%e6%9b%b8%e5%ba%97%e6%96%b0%e9%9d%99%e5%b2%a1%e5%ba%97","position":{"lat":"34.9757575","long":"138.3853355"}},{"name":"戸田書店江尻台店","post":"〒424-0044","address":"静岡県静岡市清水区江尻台町22-33","tel":"054-361-3511","mapUrl":"https://maps.google.co.jp/maps?q=%e6%88%b8%e7%94%b0%e6%9b%b8%e5%ba%97%e6%b1%9f%e5%b0%bb%e5%8f%b0%e5%ba%97","position":{"lat":"35.0237386","long":"138.4707078"}},{"name":"谷島屋浜松本店","post":"〒430-0926","address":"静岡県浜松市中区砂山町6-1 浜松ﾒｲﾜﾝ8F","tel":"053-457-4165","mapUrl":"https://maps.google.co.jp/maps?q=%e8%b0%b7%e5%b3%b6%e5%b1%8b%e6%b5%9c%e6%9d%be%e6%9c%ac%e5%ba%97","position":{"lat":"34.7041687","long":"137.7322633"}},{"name":"谷島屋イオンモール浜松志都呂店","post":"〒432-8069","address":"静岡県浜松市西区志都呂2丁目37番地1号","tel":"053-415-1341","mapUrl":"https://maps.google.co.jp/maps?q=%e8%b0%b7%e5%b3%b6%e5%b1%8b%e3%82%a4%e3%82%aa%e3%83%b3%e3%83%a2%e3%83%bc%e3%83%ab%e6%b5%9c%e6%9d%be%e5%bf%97%e9%83%bd%e5%91%82%e5%ba%97","position":{"lat":"34.6970678","long":"137.650746"}},{"name":"谷島屋サンストリート浜北店","post":"〒434-0041","address":"静岡県浜松市浜北区平口2861 ｻﾝｽﾄﾘｰﾄ浜北1F","tel":"053-584-3025","mapUrl":"https://maps.google.co.jp/maps?q=%e8%b0%b7%e5%b3%b6%e5%b1%8b%e3%82%b5%e3%83%b3%e3%82%b9%e3%83%88%e3%83%aa%e3%83%bc%e3%83%88%e6%b5%9c%e5%8c%97%e5%ba%97","position":{"lat":"34.7963078","long":"137.7593778"}},{"name":"未来屋書店浜松市野店","post":"〒435-0052","address":"静岡県浜松市東区天王町諏訪1981-3","tel":"053-467-1330","mapUrl":"https://maps.google.co.jp/maps?q=%e6%9c%aa%e6%9d%a5%e5%b1%8b%e6%9b%b8%e5%ba%97%e6%b5%9c%e6%9d%be%e5%b8%82%e9%87%8e%e5%ba%97","position":{"lat":"34.7391143","long":"137.7595303"}},{"name":"紀伊國屋書店静岡理工科大学ブックセンター","post":"〒437-0032","address":"静岡県袋井市豊沢2200-2","tel":"0538-31-6231","mapUrl":"https://maps.google.co.jp/maps?q=%e7%b4%80%e4%bc%8a%e5%9c%8b%e5%b1%8b%e6%9b%b8%e5%ba%97%e9%9d%99%e5%b2%a1%e7%90%86%e5%b7%a5%e7%a7%91%e5%a4%a7%e5%ad%a6%e3%83%96%e3%83%83%e3%82%af%e3%82%bb%e3%83%b3%e3%82%bf%e3%83%bc","position":{"lat":"35.0135754","long":"138.4243579"}},{"name":"谷島屋ららぽーと磐田店","post":"〒438-0801","address":"静岡県磐田市高見丘1200 ららぽｰと磐田1F","tel":"0538-59-0358","mapUrl":"https://maps.google.co.jp/maps?q=%e8%b0%b7%e5%b3%b6%e5%b1%8b%e3%82%89%e3%82%89%e3%81%bd%e3%83%bc%e3%81%a8%e7%a3%90%e7%94%b0%e5%ba%97","position":{"lat":"34.7496871","long":"137.8407601"}},{"name":"精文館書店本店","post":"〒440-8517","address":"愛知県豊橋市広小路1-6","tel":"0532-54-2345","mapUrl":"https://maps.google.co.jp/maps?q=%e7%b2%be%e6%96%87%e9%a4%a8%e6%9b%b8%e5%ba%97%e6%9c%ac%e5%ba%97","position":{"lat":"34.7645464","long":"137.3816299"}},{"name":"TSUTAYAウイングタウン岡崎店","post":"〒444-0814","address":"愛知県岡崎市羽根町小豆坂3","tel":"0564-72-5080","mapUrl":"https://maps.google.co.jp/maps?q=TSUTAYA%e3%82%a6%e3%82%a4%e3%83%b3%e3%82%b0%e3%82%bf%e3%82%a6%e3%83%b3%e5%b2%a1%e5%b4%8e%e5%ba%97","position":{"lat":"34.92344","long":"137.1726713"}},{"name":"本の王国刈谷店","post":"〒448-0858","address":"愛知県刈谷市若松町2-101 みなくる刈谷2F","tel":"0566-28-0833","mapUrl":"https://maps.google.co.jp/maps?q=%e6%9c%ac%e3%81%ae%e7%8e%8b%e5%9b%bd%e5%88%88%e8%b0%b7%e5%ba%97","position":{"lat":"34.9890208","long":"137.0064318"}},{"name":"ジュンク堂書店名古屋店","post":"〒450-0002","address":"愛知県名古屋市中村区名駅3-25-9 堀内ﾋﾞﾙ1F","tel":"052-589-6321","mapUrl":"https://maps.google.co.jp/maps?q=%e3%82%b8%e3%83%a5%e3%83%b3%e3%82%af%e5%a0%82%e6%9b%b8%e5%ba%97%e5%90%8d%e5%8f%a4%e5%b1%8b%e5%ba%97","position":{"lat":"35.171847","long":"136.8838053"}},{"name":"三省堂書店名古屋本店","post":"〒450-6608","address":"愛知県名古屋市中村区名駅1-1-3 ﾀｶｼﾏﾔｹﾞｰﾄﾀﾜｰﾓｰﾙ8F","tel":"052-566-6801","mapUrl":"https://maps.google.co.jp/maps?q=%e4%b8%89%e7%9c%81%e5%a0%82%e6%9b%b8%e5%ba%97%e5%90%8d%e5%8f%a4%e5%b1%8b%e6%9c%ac%e5%ba%97","position":{"lat":"35.172156","long":"136.8806783"}},{"name":"紀伊國屋書店mozoワンダーシティ店","post":"〒452-0817","address":"愛知県名古屋市西区二方町40番 mozoﾜﾝﾀﾞｰｼﾃｨ4F","tel":"052-506-7671","mapUrl":"https://maps.google.co.jp/maps?q=%e7%b4%80%e4%bc%8a%e5%9c%8b%e5%b1%8b%e6%9b%b8%e5%ba%97mozo%e3%83%af%e3%83%b3%e3%83%80%e3%83%bc%e3%82%b7%e3%83%86%e3%82%a3%e5%ba%97","position":{"lat":"35.2244775","long":"136.8795875"}},{"name":"未来屋書店大高店","post":"〒459-8001","address":"愛知県名古屋市緑区大高町字奥平子1-1","tel":"052-624-4061","mapUrl":"https://maps.google.co.jp/maps?q=%e6%9c%aa%e6%9d%a5%e5%b1%8b%e6%9b%b8%e5%ba%97%e5%a4%a7%e9%ab%98%e5%ba%97","position":{"lat":"35.0540972","long":"136.9441369"}},{"name":"ジュンク堂書店名古屋栄店","post":"〒460-0004","address":"愛知県名古屋市中区新栄町1丁目1 明治安田生命名古屋ﾋﾞﾙ地下1.2階","tel":"052-212-5360","mapUrl":"https://maps.google.co.jp/maps?q=%e3%82%b8%e3%83%a5%e3%83%b3%e3%82%af%e5%a0%82%e6%9b%b8%e5%ba%97%e5%90%8d%e5%8f%a4%e5%b1%8b%e6%a0%84%e5%ba%97","position":{"lat":"35.169436","long":"136.9075223"}},{"name":"丸善名古屋本店","post":"〒460-0008","address":"愛知県名古屋市中区栄3-8-14","tel":"052-238-0320","mapUrl":"https://maps.google.co.jp/maps?q=%e4%b8%b8%e5%96%84%e5%90%8d%e5%8f%a4%e5%b1%8b%e6%9c%ac%e5%ba%97","position":{"lat":"35.167193","long":"136.9034403"}},{"name":"三洋堂書店上前津店","post":"〒460-0011","address":"愛知県名古屋市中区大須3-10-16","tel":"052-251-8334","mapUrl":"https://maps.google.co.jp/maps?q=%e4%b8%89%e6%b4%8b%e5%a0%82%e6%9b%b8%e5%ba%97%e4%b8%8a%e5%89%8d%e6%b4%a5%e5%ba%97","position":{"lat":"35.1605205","long":"136.9037422"}},{"name":"未来屋書店ナゴヤドーム店","post":"〒461-0048","address":"愛知県名古屋市東区矢田南4-102-3 ｲｵﾝﾅｺﾞﾔﾄﾞｰﾑ前3階","tel":"052-723-3321","mapUrl":"https://maps.google.co.jp/maps?q=%e6%9c%aa%e6%9d%a5%e5%b1%8b%e6%9b%b8%e5%ba%97%e3%83%8a%e3%82%b4%e3%83%a4%e3%83%89%e3%83%bc%e3%83%a0%e5%ba%97","position":{"lat":"35.187749","long":"136.9431956"}},{"name":"丸善南山大学名古屋売店","post":"〒466-0823","address":"愛知県名古屋市昭和区八雲町74","tel":"052-838-5566","mapUrl":"https://maps.google.co.jp/maps?q=%e4%b8%b8%e5%96%84%e5%8d%97%e5%b1%b1%e5%a4%a7%e5%ad%a6%e5%90%8d%e5%8f%a4%e5%b1%8b%e5%a3%b2%e5%ba%97","position":{"lat":"35.1486932","long":"136.9606522"}},{"name":"三洋堂書店新開橋店","post":"〒467-0856","address":"愛知県名古屋市瑞穂区新開町18-22","tel":"052-871-3934","mapUrl":"https://maps.google.co.jp/maps?q=%e4%b8%89%e6%b4%8b%e5%a0%82%e6%9b%b8%e5%ba%97%e6%96%b0%e9%96%8b%e6%a9%8b%e5%ba%97","position":{"lat":"35.1240553","long":"136.9151578"}},{"name":"ちくさ正文館書店BOOKSHOP","post":"〒468-8502","address":"愛知県名古屋市天白区塩釜口1-501 名城大学天白ｷｬﾝﾊﾟｽ校4号館内","tel":"052-833-8215","mapUrl":"https://maps.google.co.jp/maps?q=%e3%81%a1%e3%81%8f%e3%81%95%e6%ad%a3%e6%96%87%e9%a4%a8%e6%9b%b8%e5%ba%97BOOKSHOP","position":{"lat":"35.1527446","long":"136.9366636"}},{"name":"紀伊國屋書店愛工大ブックセンター","post":"〒470-0356","address":"愛知県豊田市八草町八千草1247 愛知工業大学内","tel":"0565-43-1025","mapUrl":"https://maps.google.co.jp/maps?q=%e7%b4%80%e4%bc%8a%e5%9c%8b%e5%b1%8b%e6%9b%b8%e5%ba%97%e6%84%9b%e5%b7%a5%e5%a4%a7%e3%83%96%e3%83%83%e3%82%af%e3%82%bb%e3%83%b3%e3%82%bf%e3%83%bc","position":{"lat":"35.6334676","long":"134.7627999"}},{"name":"精文館書店新豊田店","post":"〒471-0864","address":"愛知県豊田市広路町1-15","tel":"0565-33-3322","mapUrl":"https://maps.google.co.jp/maps?q=%e7%b2%be%e6%96%87%e9%a4%a8%e6%9b%b8%e5%ba%97%e6%96%b0%e8%b1%8a%e7%94%b0%e5%ba%97","position":{"lat":"35.078637","long":"137.1586933"}},{"name":"紀伊國屋書店名古屋空港店","post":"〒480-0288","address":"愛知県西春日井郡豊山町豊場林先1-8 ｴｱﾎﾟｰﾄｳｫｰｸ名古屋401","tel":"0568-39-3851","mapUrl":"https://maps.google.co.jp/maps?q=%e7%b4%80%e4%bc%8a%e5%9c%8b%e5%b1%8b%e6%9b%b8%e5%ba%97%e5%90%8d%e5%8f%a4%e5%b1%8b%e7%a9%ba%e6%b8%af%e5%ba%97","position":{"lat":"35.245942","long":"136.922634"}},{"name":"未来屋書店長久手店","post":"〒480-1100","address":"愛知県長久手市長久手中央土地区画整理事業地内 5-10-11街区 ｲｵﾝﾓｰﾙ長久手4F","tel":"0561-64-5722","mapUrl":"https://maps.google.co.jp/maps?q=%e6%9c%aa%e6%9d%a5%e5%b1%8b%e6%9b%b8%e5%ba%97%e9%95%b7%e4%b9%85%e6%89%8b%e5%ba%97","position":{"lat":"35.1736792","long":"137.0478089"}},{"name":"カルコス小牧店","post":"〒485-0046","address":"愛知県小牧市堀の内5-144","tel":"0568-77-7511","mapUrl":"https://maps.google.co.jp/maps?q=%e3%82%ab%e3%83%ab%e3%82%b3%e3%82%b9%e5%b0%8f%e7%89%a7%e5%ba%97","position":{"lat":"35.286475","long":"136.9054773"}},{"name":"丸善中部大学売店","post":"〒487-0027","address":"愛知県春日井市松本町1200","tel":"0568-51-1204","mapUrl":"https://maps.google.co.jp/maps?q=%e4%b8%b8%e5%96%84%e4%b8%ad%e9%83%a8%e5%a4%a7%e5%ad%a6%e5%a3%b2%e5%ba%97","position":{"lat":"35.2740483","long":"137.0124472"}},{"name":"精文館書店尾張一宮店","post":"〒491-0847","address":"愛知県一宮市大和町宮地花池出町裏64","tel":"0586-26-1616","mapUrl":"https://maps.google.co.jp/maps?q=%e7%b2%be%e6%96%87%e9%a4%a8%e6%9b%b8%e5%ba%97%e5%b0%be%e5%bc%b5%e4%b8%80%e5%ae%ae%e5%ba%97","position":{"lat":"35.3053867","long":"136.8078584"}},{"name":"宮脇書店四日市本店","post":"〒510-0075","address":"三重県四日市市安島1-3-31 ﾗﾗｽｸｴｱ四日市4F","tel":"0593-59-5910","mapUrl":"https://maps.google.co.jp/maps?q=%e5%ae%ae%e8%84%87%e6%9b%b8%e5%ba%97%e5%9b%9b%e6%97%a5%e5%b8%82%e6%9c%ac%e5%ba%97","position":{"lat":"34.9685377","long":"136.6145735"}},{"name":"丸善四日市店","post":"〒510-8585","address":"三重県四日市市諏訪栄町7-34 近鉄百貨店四日市店 B1F","tel":"059-359-2340","mapUrl":"https://maps.google.co.jp/maps?q=%e4%b8%b8%e5%96%84%e5%9b%9b%e6%97%a5%e5%b8%82%e5%ba%97","position":{"lat":"34.9669068","long":"136.6168868"}},{"name":"未来屋書店鈴鹿店","post":"〒513-0834","address":"三重県鈴鹿市庄野羽山4-1-2 ｲｵﾝﾓｰﾙ鈴鹿2階","tel":"059-375-0617","mapUrl":"https://maps.google.co.jp/maps?q=%e6%9c%aa%e6%9d%a5%e5%b1%8b%e6%9b%b8%e5%ba%97%e9%88%b4%e9%b9%bf%e5%ba%97","position":{"lat":"34.872084","long":"136.5287042"}},{"name":"丸善龍谷大学瀬田売店","post":"〒520-2123","address":"滋賀県大津市瀬田大江町横谷1-5","tel":"077-543-5135","mapUrl":"https://maps.google.co.jp/maps?q=%e4%b8%b8%e5%96%84%e9%be%8d%e8%b0%b7%e5%a4%a7%e5%ad%a6%e7%80%ac%e7%94%b0%e5%a3%b2%e5%ba%97","position":{"lat":"34.9652032","long":"135.9388973"}},{"name":"大垣書店大津一里山店","post":"〒520-2153","address":"滋賀県大津市一里山7-1-1 ﾌｫﾚｵ大津一里山1F","tel":"077-547-1020","mapUrl":"https://maps.google.co.jp/maps?q=%e5%a4%a7%e5%9e%a3%e6%9b%b8%e5%ba%97%e5%a4%a7%e6%b4%a5%e4%b8%80%e9%87%8c%e5%b1%b1%e5%ba%97","position":{"lat":"34.9746578","long":"135.9314221"}},{"name":"ジュンク堂書店滋賀草津店","post":"〒525-0032","address":"滋賀県草津市大路1-1-1 ｶﾞｰﾃﾞﾝｼﾃｨ草津B1F","tel":"077-569-5553","mapUrl":"https://maps.google.co.jp/maps?q=%e3%82%b8%e3%83%a5%e3%83%b3%e3%82%af%e5%a0%82%e6%9b%b8%e5%ba%97%e6%bb%8b%e8%b3%80%e8%8d%89%e6%b4%a5%e5%ba%97","position":{"lat":"35.0210754","long":"135.9592575"}},{"name":"喜久屋書店草津店","post":"〒525-0067","address":"滋賀県草津市新浜町300 ｲｵﾝﾓｰﾙ草津2F","tel":"077-516-1118","mapUrl":"https://maps.google.co.jp/maps?q=%e5%96%9c%e4%b9%85%e5%b1%8b%e6%9b%b8%e5%ba%97%e8%8d%89%e6%b4%a5%e5%ba%97","position":{"lat":"34.9983784","long":"135.9102087"}},{"name":"大垣書店京都本店","post":"〒600-8009","address":"京都府京都市下京区四条通り室町東入函谷鉾町78 SUINA室町1F","tel":"075-746-2211","mapUrl":"https://maps.google.co.jp/maps?q=%e5%a4%a7%e5%9e%a3%e6%9b%b8%e5%ba%97%e4%ba%ac%e9%83%bd%e6%9c%ac%e5%ba%97","position":{"lat":"35.0035002","long":"135.7563102"}},{"name":"ヨドバシカメラマルチメディア京都店","post":"〒600-8216","address":"京都府京都市下京区烏丸通七条下ﾙ東塩小路町590-2 ﾖﾄﾞﾊﾞｼ京都ﾋﾞﾙ","tel":"075-351-1010","mapUrl":"https://maps.google.co.jp/maps?q=%e3%83%a8%e3%83%89%e3%83%90%e3%82%b7%e3%82%ab%e3%83%a1%e3%83%a9%e3%83%9e%e3%83%ab%e3%83%81%e3%83%a1%e3%83%87%e3%82%a3%e3%82%a2%e4%ba%ac%e9%83%bd%e5%ba%97","position":{"lat":"34.988164","long":"135.756796"}},{"name":"大垣書店ヨドバシ京都店","post":"〒600-8216","address":"京都府京都市下京区烏丸通七条下ﾙ東塩小路町702 ﾖﾄﾞﾊﾞｼ京都ﾋﾞﾙ6F","tel":"075-371-1700","mapUrl":"https://maps.google.co.jp/maps?q=%e5%a4%a7%e5%9e%a3%e6%9b%b8%e5%ba%97%e3%83%a8%e3%83%89%e3%83%90%e3%82%b7%e4%ba%ac%e9%83%bd%e5%ba%97","position":{"lat":"34.9883314","long":"135.756413"}},{"name":"アバンティ･ブックセンター","post":"〒601-8003","address":"京都府京都市南区東九条西山王町31 ｱﾊﾞﾝﾃｨﾋﾞﾙ内ﾌｨｽﾐｰ京都店6F","tel":"075-671-8987","mapUrl":"https://maps.google.co.jp/maps?q=%e3%82%a2%e3%83%90%e3%83%b3%e3%83%86%e3%82%a3%ef%bd%a5%e3%83%96%e3%83%83%e3%82%af%e3%82%bb%e3%83%b3%e3%82%bf%e3%83%bc","position":{"lat":"34.7243938","long":"134.9178406"}},{"name":"大垣書店イオンモール京都桂川店","post":"〒601-8211","address":"京都府京都市南区久世高田町376番 ｲｵﾝﾓｰﾙ京都桂川1F","tel":"075-925-1717","mapUrl":"https://maps.google.co.jp/maps?q=%e5%a4%a7%e5%9e%a3%e6%9b%b8%e5%ba%97%e3%82%a4%e3%82%aa%e3%83%b3%e3%83%a2%e3%83%bc%e3%83%ab%e4%ba%ac%e9%83%bd%e6%a1%82%e5%b7%9d%e5%ba%97","position":{"lat":"34.963787","long":"135.7047477"}},{"name":"大垣書店イオンモールＫＹＯＴＯ店","post":"〒601-8417","address":"京都府京都市南区八条通西洞院下ﾙ九条鳥居口町 ｲｵﾝﾓｰﾙKYOTO Kaede館2F","tel":"075-692-3331","mapUrl":"https://maps.google.co.jp/maps?q=%e5%a4%a7%e5%9e%a3%e6%9b%b8%e5%ba%97%e3%82%a4%e3%82%aa%e3%83%b3%e3%83%a2%e3%83%bc%e3%83%ab%ef%bc%ab%ef%bc%b9%ef%bc%af%ef%bc%b4%ef%bc%af%e5%ba%97","position":{"lat":"34.9827065","long":"135.7538542"}},{"name":"紀伊國屋書店京都産業大学ブックセンター","post":"〒603-8555","address":"京都府京都市北区上賀茂本山 京都産業大学売店","tel":"075-708-1356","mapUrl":"https://maps.google.co.jp/maps?q=%e7%b4%80%e4%bc%8a%e5%9c%8b%e5%b1%8b%e6%9b%b8%e5%ba%97%e4%ba%ac%e9%83%bd%e7%94%a3%e6%a5%ad%e5%a4%a7%e5%ad%a6%e3%83%96%e3%83%83%e3%82%af%e3%82%bb%e3%83%b3%e3%82%bf%e3%83%bc","position":{"lat":"35.0696561","long":"135.7566029"}},{"name":"丸善京都本店","post":"〒604-8031","address":"京都府京都市中京区河原町通三条下ﾙ2丁目山崎町 251 京都BAL店内B1F~B2F","tel":"075-253-1599","mapUrl":"https://maps.google.co.jp/maps?q=%e4%b8%b8%e5%96%84%e4%ba%ac%e9%83%bd%e6%9c%ac%e5%ba%97","position":{"lat":"35.0068236","long":"135.7674321"}},{"name":"アカデミアけいはんな店","post":"〒619-0238","address":"京都府相楽郡精華町精華台9-2-4 ﾕｰﾀｳﾝけいはんな西館1F","tel":"077-498-4053","mapUrl":"https://maps.google.co.jp/maps?q=%e3%82%a2%e3%82%ab%e3%83%87%e3%83%9f%e3%82%a2%e3%81%91%e3%81%84%e3%81%af%e3%82%93%e3%81%aa%e5%ba%97","position":{"lat":"34.746431","long":"135.7670751"}},{"name":"ジュンク堂書店大阪本店","post":"〒530-0003","address":"大阪府大阪市北区堂島1-6-20 堂島ｱﾊﾞﾝｻﾞ3F","tel":"06-4799-1090","mapUrl":"https://maps.google.co.jp/maps?q=%e3%82%b8%e3%83%a5%e3%83%b3%e3%82%af%e5%a0%82%e6%9b%b8%e5%ba%97%e5%a4%a7%e9%98%aa%e6%9c%ac%e5%ba%97","position":{"lat":"34.696982","long":"135.4942573"}},{"name":"ヨドバシカメラ梅田店","post":"〒530-0011","address":"大阪府大阪市北区大深町1-1","tel":"06-4802-1010","mapUrl":"https://maps.google.co.jp/maps?q=%e3%83%a8%e3%83%89%e3%83%90%e3%82%b7%e3%82%ab%e3%83%a1%e3%83%a9%e6%a2%85%e7%94%b0%e5%ba%97","position":{"lat":"34.7040943","long":"135.4940793"}},{"name":"紀伊國屋書店グランフロント大阪店","post":"〒530-0011","address":"大阪府大阪市北区大深町4-20 ｸﾞﾗﾝﾌﾛﾝﾄ大阪店ｼｮｯﾌﾟ&ﾚｽﾄﾗﾝ南館6F","tel":"06-7730-8451","mapUrl":"https://maps.google.co.jp/maps?q=%e7%b4%80%e4%bc%8a%e5%9c%8b%e5%b1%8b%e6%9b%b8%e5%ba%97%e3%82%b0%e3%83%a9%e3%83%b3%e3%83%95%e3%83%ad%e3%83%b3%e3%83%88%e5%a4%a7%e9%98%aa%e5%ba%97","position":{"lat":"34.7043128","long":"135.4922699"}},{"name":"紀伊國屋書店梅田本店","post":"〒530-0012","address":"大阪府大阪市北区芝田1-1-3 阪急三番街","tel":"06-6372-5821","mapUrl":"https://maps.google.co.jp/maps?q=%e7%b4%80%e4%bc%8a%e5%9c%8b%e5%b1%8b%e6%9b%b8%e5%ba%97%e6%a2%85%e7%94%b0%e6%9c%ac%e5%ba%97","position":{"lat":"34.7060177","long":"135.496049"}},{"name":"MARUZEN＆ジュンク堂書店梅田店","post":"〒530-0013","address":"大阪府大阪市北区茶屋町7-20 ﾁｬｽｶ茶屋町B1F~7F","tel":"06-6292-7383","mapUrl":"https://maps.google.co.jp/maps?q=MARUZEN%ef%bc%86%e3%82%b8%e3%83%a5%e3%83%b3%e3%82%af%e5%a0%82%e6%9b%b8%e5%ba%97%e6%a2%85%e7%94%b0%e5%ba%97","position":{"lat":"34.7074897","long":"135.4978901"}},{"name":"ジュンク堂書店天満橋店","post":"〒540-0032","address":"大阪府大阪市中央区天満橋京町1-1 京阪ｼﾃｨﾓｰﾙ7F","tel":"06-6920-3730","mapUrl":"https://maps.google.co.jp/maps?q=%e3%82%b8%e3%83%a5%e3%83%b3%e3%82%af%e5%a0%82%e6%9b%b8%e5%ba%97%e5%a4%a9%e6%ba%80%e6%a9%8b%e5%ba%97","position":{"lat":"34.6902275","long":"135.5144129"}},{"name":"紀伊國屋書店本町店","post":"〒541-0052","address":"大阪府大阪市中央区安土町2-3-13 大阪国際ﾋﾞﾙﾃﾞｨﾝｸﾞ1F","tel":"06-4705-4556","mapUrl":"https://maps.google.co.jp/maps?q=%e7%b4%80%e4%bc%8a%e5%9c%8b%e5%b1%8b%e6%9b%b8%e5%ba%97%e6%9c%ac%e7%94%ba%e5%ba%97","position":{"lat":"34.6839466","long":"135.5028982"}},{"name":"旭屋書店なんばCITY店","post":"〒542-0076","address":"大阪府大阪市中央区難波5-1-60 なんばCITY B2","tel":"06-6644-2551","mapUrl":"https://maps.google.co.jp/maps?q=%e6%97%ad%e5%b1%8b%e6%9b%b8%e5%ba%97%e3%81%aa%e3%82%93%e3%81%b0CITY%e5%ba%97","position":{"lat":"34.6632861","long":"135.5002086"}},{"name":"紀伊國屋書店天王寺ミオ店","post":"〒543-0055","address":"大阪府大阪市天王寺区悲田院町10-39 天王寺ﾐｵ 本館9F","tel":"06-6776-7091","mapUrl":"https://maps.google.co.jp/maps?q=%e7%b4%80%e4%bc%8a%e5%9c%8b%e5%b1%8b%e6%9b%b8%e5%ba%97%e5%a4%a9%e7%8e%8b%e5%af%ba%e3%83%9f%e3%82%aa%e5%ba%97","position":{"lat":"34.6468647","long":"135.5121539"}},{"name":"喜久屋書店阿倍野店","post":"〒545-0052","address":"大阪府大阪市阿倍野区阿倍野筋1-5-31 ｱﾎﾟﾛﾋﾞﾙ2F","tel":"06-6634-8606","mapUrl":"https://maps.google.co.jp/maps?q=%e5%96%9c%e4%b9%85%e5%b1%8b%e6%9b%b8%e5%ba%97%e9%98%bf%e5%80%8d%e9%87%8e%e5%ba%97","position":{"lat":"34.6465035","long":"135.5091409"}},{"name":"ジュンク堂書店近鉄あべのハルカス店","post":"〒545-8545","address":"大阪府大阪市阿倍野区阿倍野筋1-1-43 あべのﾊﾙｶｽ近鉄本店ｳｲﾝｸﾞ館7F･8F","tel":"06-6626-2151","mapUrl":"https://maps.google.co.jp/maps?q=%e3%82%b8%e3%83%a5%e3%83%b3%e3%82%af%e5%a0%82%e6%9b%b8%e5%ba%97%e8%bf%91%e9%89%84%e3%81%82%e3%81%b9%e3%81%ae%e3%83%8f%e3%83%ab%e3%82%ab%e3%82%b9%e5%ba%97","position":{"lat":"34.645913","long":"135.5121717"}},{"name":"ジュンク堂書店難波店","post":"〒556-0017","address":"大阪府大阪市浪速区湊町1-2-3 ﾏﾙｲﾄ難波ﾋﾞﾙ","tel":"06-4396-4771","mapUrl":"https://maps.google.co.jp/maps?q=%e3%82%b8%e3%83%a5%e3%83%b3%e3%82%af%e5%a0%82%e6%9b%b8%e5%ba%97%e9%9b%a3%e6%b3%a2%e5%ba%97","position":{"lat":"34.6669003","long":"135.4944849"}},{"name":"田村書店千里中央店","post":"〒560-0082","address":"大阪府豊中市新千里東町1-3-321 せんちゅうﾊﾟﾙ3F･4F","tel":"06-6831-5657","mapUrl":"https://maps.google.co.jp/maps?q=%e7%94%b0%e6%9d%91%e6%9b%b8%e5%ba%97%e5%8d%83%e9%87%8c%e4%b8%ad%e5%a4%ae%e5%ba%97","position":{"lat":"34.8106801","long":"135.4930182"}},{"name":"関西大学生協吹田店","post":"〒565-0842","address":"大阪府吹田市千里山東3-10-1","tel":"06-6368-7548","mapUrl":"https://maps.google.co.jp/maps?q=%e9%96%a2%e8%a5%bf%e5%a4%a7%e5%ad%a6%e7%94%9f%e5%8d%94%e5%90%b9%e7%94%b0%e5%ba%97","position":{"lat":"34.7738571","long":"135.5084146"}},{"name":"関西大学生協高槻店","post":"〒569-1052","address":"大阪府高槻市霊仙寺町2-1-1","tel":"072-699-0275","mapUrl":"https://maps.google.co.jp/maps?q=%e9%96%a2%e8%a5%bf%e5%a4%a7%e5%ad%a6%e7%94%9f%e5%8d%94%e9%ab%98%e6%a7%bb%e5%ba%97","position":{"lat":"34.87804","long":"135.5733503"}},{"name":"紀伊國屋書店高槻店","post":"〒569-1196","address":"大阪府高槻市白梅町4-1 高槻ｵｰﾛﾗﾓｰﾙ5F","tel":"072-686-1195","mapUrl":"https://maps.google.co.jp/maps?q=%e7%b4%80%e4%bc%8a%e5%9c%8b%e5%b1%8b%e6%9b%b8%e5%ba%97%e9%ab%98%e6%a7%bb%e5%ba%97","position":{"lat":"34.8533975","long":"135.6161541"}},{"name":"丸善高島屋堺店","post":"〒590-0028","address":"大阪府堺市堺区三国ヶ丘御幸通59 堺高島屋4階","tel":"072-225-0930","mapUrl":"https://maps.google.co.jp/maps?q=%e4%b8%b8%e5%96%84%e9%ab%98%e5%b3%b6%e5%b1%8b%e5%a0%ba%e5%ba%97","position":{"lat":"34.5753556","long":"135.4822006"}},{"name":"未来屋書店りんくう泉南店","post":"〒590-0535","address":"大阪府泉南市りんくう南浜3-12 ｲｵﾝﾓｰﾙ泉南2階","tel":"072-482-0517","mapUrl":"https://maps.google.co.jp/maps?q=%e6%9c%aa%e6%9d%a5%e5%b1%8b%e6%9b%b8%e5%ba%97%e3%82%8a%e3%82%93%e3%81%8f%e3%81%86%e6%b3%89%e5%8d%97%e5%ba%97","position":{"lat":"34.3796319","long":"135.2638412"}},{"name":"ジュンク堂書店三宮店","post":"〒650-0021","address":"兵庫県神戸市中央区三宮町1-6-18","tel":"078-392-1001","mapUrl":"https://maps.google.co.jp/maps?q=%e3%82%b8%e3%83%a5%e3%83%b3%e3%82%af%e5%a0%82%e6%9b%b8%e5%ba%97%e4%b8%89%e5%ae%ae%e5%ba%97","position":{"lat":"34.6931565","long":"135.1921158"}},{"name":"大垣書店ハーバーランドumie店","post":"〒650-0044","address":"兵庫県神戸市中央区東川崎町1 umie NORTH MALL5階","tel":"078-382-7112","mapUrl":"https://maps.google.co.jp/maps?q=%e5%a4%a7%e5%9e%a3%e6%9b%b8%e5%ba%97%e3%83%8f%e3%83%bc%e3%83%90%e3%83%bc%e3%83%a9%e3%83%b3%e3%83%89umie%e5%ba%97","position":{"lat":"34.6797155","long":"135.1803114"}},{"name":"ジュンク堂書店三宮駅前店","post":"〒651-0096","address":"兵庫県神戸市中央区雲井通6-1-15 ｻﾝｼﾃｨﾋﾞﾙ7F","tel":"078-252-0777","mapUrl":"https://maps.google.co.jp/maps?q=%e3%82%b8%e3%83%a5%e3%83%b3%e3%82%af%e5%a0%82%e6%9b%b8%e5%ba%97%e4%b8%89%e5%ae%ae%e9%a7%85%e5%89%8d%e5%ba%97","position":{"lat":"34.695124","long":"135.1942443"}},{"name":"喜久屋書店北神戸店","post":"〒651-1515","address":"兵庫県神戸市北区上津台8-1-1 ｲｵﾝﾓｰﾙ神戸北2F","tel":"078-983-3755","mapUrl":"https://maps.google.co.jp/maps?q=%e5%96%9c%e4%b9%85%e5%b1%8b%e6%9b%b8%e5%ba%97%e5%8c%97%e7%a5%9e%e6%88%b8%e5%ba%97","position":{"lat":"34.8611527","long":"135.1942327"}},{"name":"ジュンク堂書店西宮店","post":"〒663-8035","address":"兵庫県西宮市北口町1-1 ｱｸﾀ西宮西館4F","tel":"079-868-6300","mapUrl":"https://maps.google.co.jp/maps?q=%e3%82%b8%e3%83%a5%e3%83%b3%e3%82%af%e5%a0%82%e6%9b%b8%e5%ba%97%e8%a5%bf%e5%ae%ae%e5%ba%97","position":{"lat":"34.747338","long":"135.3551143"}},{"name":"ブックファースト阪急西宮ガーデンズ店","post":"〒663-8204","address":"兵庫県西宮市高松町14-2-405 阪急西宮ｶﾞｰﾃﾞﾝｽﾞ4F","tel":"079-862-6103","mapUrl":"https://maps.google.co.jp/maps?q=%e3%83%96%e3%83%83%e3%82%af%e3%83%95%e3%82%a1%e3%83%bc%e3%82%b9%e3%83%88%e9%98%aa%e6%80%a5%e8%a5%bf%e5%ae%ae%e3%82%ac%e3%83%bc%e3%83%87%e3%83%b3%e3%82%ba%e5%ba%97","position":{"lat":"34.743547","long":"135.358823"}},{"name":"ジュンク堂書店姫路店","post":"〒670-0914","address":"兵庫県姫路市豆腐町222 ﾌﾟﾘｴ姫路2F","tel":"079-221-8280","mapUrl":"https://maps.google.co.jp/maps?q=%e3%82%b8%e3%83%a5%e3%83%b3%e3%82%af%e5%a0%82%e6%9b%b8%e5%ba%97%e5%a7%ab%e8%b7%af%e5%ba%97","position":{"lat":"34.8266156","long":"134.6872367"}},{"name":"ジュンク堂書店明石店","post":"〒673-0891","address":"兵庫県明石市大明石1-6-1 ﾊﾟﾋﾟｵｽあかし2階","tel":"078-918-6670","mapUrl":"https://maps.google.co.jp/maps?q=%e3%82%b8%e3%83%a5%e3%83%b3%e3%82%af%e5%a0%82%e6%9b%b8%e5%ba%97%e6%98%8e%e7%9f%b3%e5%ba%97","position":{"lat":"34.647894","long":"134.9897649"}},{"name":"紀伊國屋書店加古川店","post":"〒675-0065","address":"兵庫県加古川市加古川町篠原町三ﾂ升21-8 ﾔﾏﾄﾔｼｷ加古川店6F","tel":"079-427-3311","mapUrl":"https://maps.google.co.jp/maps?q=%e7%b4%80%e4%bc%8a%e5%9c%8b%e5%b1%8b%e6%9b%b8%e5%ba%97%e5%8a%a0%e5%8f%a4%e5%b7%9d%e5%ba%97","position":{"lat":"34.7662387","long":"134.8367351"}},{"name":"ジュンク堂書店奈良店","post":"〒631-0821","address":"奈良県奈良市西大寺東町2-4-1 ならﾌｧﾐﾘｰ専門店街4階","tel":"0742-36-0801","mapUrl":"https://maps.google.co.jp/maps?q=%e3%82%b8%e3%83%a5%e3%83%b3%e3%82%af%e5%a0%82%e6%9b%b8%e5%ba%97%e5%a5%88%e8%89%af%e5%ba%97","position":{"lat":"34.695108","long":"135.7830243"}},{"name":"喜久屋書店橿原店","post":"〒634-0837","address":"奈良県橿原市曲川町7-20-1 ｲｵﾝﾓｰﾙ橿原ｱﾙﾙ3F","tel":"0744-20-3151","mapUrl":"https://maps.google.co.jp/maps?q=%e5%96%9c%e4%b9%85%e5%b1%8b%e6%9b%b8%e5%ba%97%e6%a9%bf%e5%8e%9f%e5%ba%97","position":{"lat":"34.5069058","long":"135.7598217"}},{"name":"喜久屋書店大和郡山店","post":"〒639-1101","address":"奈良県大和郡山市下三橋町741 ｲｵﾝﾓｰﾙ大和郡山2F","tel":"0743-55-2200","mapUrl":"https://maps.google.co.jp/maps?q=%e5%96%9c%e4%b9%85%e5%b1%8b%e6%9b%b8%e5%ba%97%e5%a4%a7%e5%92%8c%e9%83%a1%e5%b1%b1%e5%ba%97","position":{"lat":"34.6510674","long":"135.7998546"}},{"name":"TSUTAYA WAYガーデンパーク和歌山店","post":"〒640-8421","address":"和歌山県和歌山市松江字向鵜ﾉ島1469-1","tel":"073-480-5900","mapUrl":"https://maps.google.co.jp/maps?q=TSUTAYA+WAY%e3%82%ac%e3%83%bc%e3%83%87%e3%83%b3%e3%83%91%e3%83%bc%e3%82%af%e5%92%8c%e6%ad%8c%e5%b1%b1%e5%ba%97","position":{"lat":"34.2393383","long":"135.1515642"}},{"name":"今井書店吉成店","post":"〒680-0874","address":"鳥取県鳥取市叶310","tel":"085-751-7020","mapUrl":"https://maps.google.co.jp/maps?q=%e4%bb%8a%e4%ba%95%e6%9b%b8%e5%ba%97%e5%90%89%e6%88%90%e5%ba%97","position":{"lat":"35.476308","long":"134.2158463"}},{"name":"本の学校 今井ブックセンター","post":"〒683-0801","address":"鳥取県米子市新開2-3-10","tel":"085-931-5000","mapUrl":"https://maps.google.co.jp/maps?q=%e6%9c%ac%e3%81%ae%e5%ad%a6%e6%a0%a1+%e4%bb%8a%e4%ba%95%e3%83%96%e3%83%83%e3%82%af%e3%82%bb%e3%83%b3%e3%82%bf%e3%83%bc","position":{"lat":"35.4542772","long":"133.3457125"}},{"name":"今井書店グループセンター店","post":"〒690-0058","address":"島根県松江市田和山町88","tel":"085-220-8811","mapUrl":"https://maps.google.co.jp/maps?q=%e4%bb%8a%e4%ba%95%e6%9b%b8%e5%ba%97%e3%82%b0%e3%83%ab%e3%83%bc%e3%83%97%e3%82%bb%e3%83%b3%e3%82%bf%e3%83%bc%e5%ba%97","position":{"lat":"35.4404238","long":"133.0506224"}},{"name":"丸善岡山シンフォニービル店","post":"〒700-0822","address":"岡山県岡山市北区表町1-5-1","tel":"086-233-4640","mapUrl":"https://maps.google.co.jp/maps?q=%e4%b8%b8%e5%96%84%e5%b2%a1%e5%b1%b1%e3%82%b7%e3%83%b3%e3%83%95%e3%82%a9%e3%83%8b%e3%83%bc%e3%83%93%e3%83%ab%e5%ba%97","position":{"lat":"34.6651026","long":"133.9274928"}},{"name":"啓文社岡山本店","post":"〒700-0973","address":"岡山県岡山市北区下中野377-1","tel":"086-805-1123","mapUrl":"https://maps.google.co.jp/maps?q=%e5%95%93%e6%96%87%e7%a4%be%e5%b2%a1%e5%b1%b1%e6%9c%ac%e5%ba%97","position":{"lat":"34.6382067","long":"133.9025443"}},{"name":"宮脇書店岡山本店","post":"〒700-0975","address":"岡山県岡山市北区今3-23-103","tel":"086-242-2188","mapUrl":"https://maps.google.co.jp/maps?q=%e5%ae%ae%e8%84%87%e6%9b%b8%e5%ba%97%e5%b2%a1%e5%b1%b1%e6%9c%ac%e5%ba%97","position":{"lat":"34.646446","long":"133.8901019"}},{"name":"喜久屋書店倉敷店","post":"〒710-0802","address":"岡山県倉敷市水江1 ｲｵﾝ倉敷ｼｮｯﾋﾟﾝｸﾞｾﾝﾀｰ2F","tel":"086-430-5450","mapUrl":"https://maps.google.co.jp/maps?q=%e5%96%9c%e4%b9%85%e5%b1%8b%e6%9b%b8%e5%ba%97%e5%80%89%e6%95%b7%e5%ba%97","position":{"lat":"34.6047326","long":"133.7439153"}},{"name":"啓文社福山ポートプラザ店","post":"〒720-8523","address":"広島県福山市入船町3-1-25 天満屋ﾊﾋﾟｰﾀｳﾝ1F","tel":"084-971-1211","mapUrl":"https://maps.google.co.jp/maps?q=%e5%95%93%e6%96%87%e7%a4%be%e7%a6%8f%e5%b1%b1%e3%83%9d%e3%83%bc%e3%83%88%e3%83%97%e3%83%a9%e3%82%b6%e5%ba%97","position":{"lat":"34.4872458","long":"133.3745175"}},{"name":"フタバ図書ALTI福山本店","post":"〒721-0961","address":"広島県福山市明神町1-14-20","tel":"084-973-8780","mapUrl":"https://maps.google.co.jp/maps?q=%e3%83%95%e3%82%bf%e3%83%90%e5%9b%b3%e6%9b%b8ALTI%e7%a6%8f%e5%b1%b1%e6%9c%ac%e5%ba%97","position":{"lat":"34.489542","long":"133.3934164"}},{"name":"紀伊國屋書店広島店","post":"〒730-0011","address":"広島県広島市中区基町6-27 広島ｾﾝﾀｰﾋﾞﾙ6F","tel":"082-225-3232","mapUrl":"https://maps.google.co.jp/maps?q=%e7%b4%80%e4%bc%8a%e5%9c%8b%e5%b1%8b%e6%9b%b8%e5%ba%97%e5%ba%83%e5%b3%b6%e5%ba%97","position":{"lat":"34.3970834","long":"132.4550376"}},{"name":"丸善広島店","post":"〒730-0021","address":"広島県広島市中区胡町5-22 天満屋広島八丁堀店7･8F","tel":"082-504-6210","mapUrl":"https://maps.google.co.jp/maps?q=%e4%b8%b8%e5%96%84%e5%ba%83%e5%b3%b6%e5%ba%97","position":{"lat":"34.3932571","long":"132.4615411"}},{"name":"フタバ図書MEGA中筋店","post":"〒731-0122","address":"広島県広島市安佐南区中筋4-11-7","tel":"082-830-0601","mapUrl":"https://maps.google.co.jp/maps?q=%e3%83%95%e3%82%bf%e3%83%90%e5%9b%b3%e6%9b%b8MEGA%e4%b8%ad%e7%ad%8b%e5%ba%97","position":{"lat":"34.4551731","long":"132.4768666"}},{"name":"ジュンク堂書店広島駅前店","post":"〒732-0822","address":"広島県広島市南区松原町9-1 福屋広島駅前店10F","tel":"082-568-3000","mapUrl":"https://maps.google.co.jp/maps?q=%e3%82%b8%e3%83%a5%e3%83%b3%e3%82%af%e5%a0%82%e6%9b%b8%e5%ba%97%e5%ba%83%e5%b3%b6%e9%a7%85%e5%89%8d%e5%ba%97","position":{"lat":"34.3964432","long":"132.471484"}},{"name":"フタバ図書アルパーク店","post":"〒733-0863","address":"広島県広島市西区草津南4-7-1","tel":"082-270-5730","mapUrl":"https://maps.google.co.jp/maps?q=%e3%83%95%e3%82%bf%e3%83%90%e5%9b%b3%e6%9b%b8%e3%82%a2%e3%83%ab%e3%83%91%e3%83%bc%e3%82%af%e5%ba%97","position":{"lat":"34.3755994","long":"132.3913144"}},{"name":"フタバ図書TERA広島府中店","post":"〒735-8588","address":"広島県安芸郡府中町大須2-1-1-3022","tel":"082-561-0770","mapUrl":"https://maps.google.co.jp/maps?q=%e3%83%95%e3%82%bf%e3%83%90%e5%9b%b3%e6%9b%b8TERA%e5%ba%83%e5%b3%b6%e5%ba%9c%e4%b8%ad%e5%ba%97","position":{"lat":"34.3945875","long":"132.4969609"}},{"name":"くまざわ書店下関店","post":"〒750-0025","address":"山口県下関市竹崎町4-4-7 ﾀﾞｲｴｰ下関店4F","tel":"083-228-0401","mapUrl":"https://maps.google.co.jp/maps?q=%e3%81%8f%e3%81%be%e3%81%96%e3%82%8f%e6%9b%b8%e5%ba%97%e4%b8%8b%e9%96%a2%e5%ba%97","position":{"lat":"33.9493651","long":"130.922178"}},{"name":"紀伊國屋書店徳島店","post":"〒770-8511","address":"徳島県徳島市寺島本町西1-5 そごう徳島店8F","tel":"088-602-1611","mapUrl":"https://maps.google.co.jp/maps?q=%e7%b4%80%e4%bc%8a%e5%9c%8b%e5%b1%8b%e6%9b%b8%e5%ba%97%e5%be%b3%e5%b3%b6%e5%ba%97","position":{"lat":"34.0733965","long":"134.5469748"}},{"name":"宮脇書店本店","post":"〒760-0029","address":"香川県高松市丸亀町4-8","tel":"087-851-3733","mapUrl":"https://maps.google.co.jp/maps?q=%e5%ae%ae%e8%84%87%e6%9b%b8%e5%ba%97%e6%9c%ac%e5%ba%97","position":{"lat":"35.0852176","long":"132.5635259"}},{"name":"ジュンク堂書店高松店","post":"〒760-0054","address":"香川県高松市常磐町1丁目3番地1号 瓦町FLAG7F","tel":"087-832-0170","mapUrl":"https://maps.google.co.jp/maps?q=%e3%82%b8%e3%83%a5%e3%83%b3%e3%82%af%e5%a0%82%e6%9b%b8%e5%ba%97%e9%ab%98%e6%9d%be%e5%ba%97","position":{"lat":"34.3388179","long":"134.0503817"}},{"name":"宮脇書店総本店","post":"〒760-0064","address":"香川県高松市朝日新町3-4","tel":"087-823-3152","mapUrl":"https://maps.google.co.jp/maps?q=%e5%ae%ae%e8%84%87%e6%9b%b8%e5%ba%97%e7%b7%8f%e6%9c%ac%e5%ba%97","position":{"lat":"34.3332903","long":"134.0457094"}},{"name":"宮脇書店南本店","post":"〒761-8071","address":"香川県高松市伏石町146-1","tel":"087-869-9361","mapUrl":"https://maps.google.co.jp/maps?q=%e5%ae%ae%e8%84%87%e6%9b%b8%e5%ba%97%e5%8d%97%e6%9c%ac%e5%ba%97","position":{"lat":"34.309366","long":"134.0586413"}},{"name":"ジュンク堂書店松山店","post":"〒790-0011","address":"愛媛県松山市千舟町5-7-1 ｴｽﾊﾟｽ松山内","tel":"089-915-0075","mapUrl":"https://maps.google.co.jp/maps?q=%e3%82%b8%e3%83%a5%e3%83%b3%e3%82%af%e5%a0%82%e6%9b%b8%e5%ba%97%e6%9d%be%e5%b1%b1%e5%ba%97","position":{"lat":"33.836971","long":"132.7622513"}},{"name":"TSUTAYA中万々店","post":"〒780-0972","address":"高知県高知市中万々809","tel":"088-875-0320","mapUrl":"https://maps.google.co.jp/maps?q=TSUTAYA%e4%b8%ad%e4%b8%87%e3%80%85%e5%ba%97","position":{"lat":"33.57141","long":"133.5161413"}},{"name":"金高堂工科大学売店","post":"〒782-0003","address":"高知県香美市土佐山田町宮ﾉ口185 高知工科大学内","tel":"088-752-3811","mapUrl":"https://maps.google.co.jp/maps?q=%e9%87%91%e9%ab%98%e5%a0%82%e5%b7%a5%e7%a7%91%e5%a4%a7%e5%ad%a6%e5%a3%b2%e5%ba%97","position":{"lat":"33.5933847","long":"133.6103626"}},{"name":"喜久屋書店小倉店","post":"〒802-0002","address":"福岡県北九州市小倉北区京町3-1-1 COLET井筒屋/I'm9F","tel":"093-514-1400","mapUrl":"https://maps.google.co.jp/maps?q=%e5%96%9c%e4%b9%85%e5%b1%8b%e6%9b%b8%e5%ba%97%e5%b0%8f%e5%80%89%e5%ba%97","position":{"lat":"33.8850268","long":"130.8805632"}},{"name":"BCクエスト小倉本店","post":"〒802-0077","address":"福岡県北九州市小倉北区馬借1-4-7","tel":"093-522-3924","mapUrl":"https://maps.google.co.jp/maps?q=BC%e3%82%af%e3%82%a8%e3%82%b9%e3%83%88%e5%b0%8f%e5%80%89%e6%9c%ac%e5%ba%97","position":{"lat":"33.881818","long":"130.8762243"}},{"name":"ジュンク堂書店福岡店","post":"〒810-0001","address":"福岡県福岡市中央区大名1-15-1 西通りｽｸｴｱ1F～3F","tel":"092-738-3322","mapUrl":"https://maps.google.co.jp/maps?q=%e3%82%b8%e3%83%a5%e3%83%b3%e3%82%af%e5%a0%82%e6%9b%b8%e5%ba%97%e7%a6%8f%e5%b2%a1%e5%ba%97","position":{"lat":"33.5871298","long":"130.3947773"}},{"name":"紀伊國屋書店福岡工業大学ブックセンター","post":"〒811-0214","address":"福岡県福岡市東区和白東3-30-1","tel":"092-608-5080","mapUrl":"https://maps.google.co.jp/maps?q=%e7%b4%80%e4%bc%8a%e5%9c%8b%e5%b1%8b%e6%9b%b8%e5%ba%97%e7%a6%8f%e5%b2%a1%e5%b7%a5%e6%a5%ad%e5%a4%a7%e5%ad%a6%e3%83%96%e3%83%83%e3%82%af%e3%82%bb%e3%83%b3%e3%82%bf%e3%83%bc","position":{"lat":"33.6960213","long":"130.4386861"}},{"name":"ヨドバシカメラ博多店","post":"〒812-0012","address":"福岡県福岡市博多区博多駅中央街6-12","tel":"092-471-1010","mapUrl":"https://maps.google.co.jp/maps?q=%e3%83%a8%e3%83%89%e3%83%90%e3%82%b7%e3%82%ab%e3%83%a1%e3%83%a9%e5%8d%9a%e5%a4%9a%e5%ba%97","position":{"lat":"33.5883664","long":"130.4195965"}},{"name":"丸善博多店","post":"〒812-0012","address":"福岡県福岡市博多区博多駅中央街1-1 博多駅ﾋﾞﾙｱﾐｭﾌﾟﾗｻﾞ8F","tel":"092-413-5401","mapUrl":"https://maps.google.co.jp/maps?q=%e4%b8%b8%e5%96%84%e5%8d%9a%e5%a4%9a%e5%ba%97","position":{"lat":"33.590357","long":"130.4178563"}},{"name":"紀伊國屋書店福岡本店","post":"〒812-0012","address":"福岡県福岡市博多区博多駅中央街2-1 福岡交通ｾﾝﾀｰﾋﾞﾙ6F","tel":"092-434-3100","mapUrl":"https://maps.google.co.jp/maps?q=%e7%b4%80%e4%bc%8a%e5%9c%8b%e5%b1%8b%e6%9b%b8%e5%ba%97%e7%a6%8f%e5%b2%a1%e6%9c%ac%e5%ba%97","position":{"lat":"33.5915197","long":"130.4175972"}},{"name":"福岡金文堂福岡大学店","post":"〒814-0180","address":"福岡県福岡市城南区七隈8-19-1 福岡大学構内","tel":"092-871-1611","mapUrl":"https://maps.google.co.jp/maps?q=%e7%a6%8f%e5%b2%a1%e9%87%91%e6%96%87%e5%a0%82%e7%a6%8f%e5%b2%a1%e5%a4%a7%e5%ad%a6%e5%ba%97","position":{"lat":"33.5472005","long":"130.3627238"}},{"name":"九大生協ビッグどら店","post":"〒819-0385","address":"福岡県福岡市西区元岡744 九州大学内ｳｴｽﾄｿﾞｰﾝ　ﾋﾞｯｸﾞどら","tel":"092-834-2310","mapUrl":"https://maps.google.co.jp/maps?q=%e4%b9%9d%e5%a4%a7%e7%94%9f%e5%8d%94%e3%83%93%e3%83%83%e3%82%b0%e3%81%a9%e3%82%89%e5%ba%97","position":{"lat":"33.5962408","long":"130.2202878"}},{"name":"九州大学生協伊都皎皎舎店","post":"〒819-0385","address":"福岡県福岡市西区元岡744","tel":"092-805-7700","mapUrl":"https://maps.google.co.jp/maps?q=%e4%b9%9d%e5%b7%9e%e5%a4%a7%e5%ad%a6%e7%94%9f%e5%8d%94%e4%bc%8a%e9%83%bd%e7%9a%8e%e7%9a%8e%e8%88%8e%e5%ba%97","position":{"lat":"33.5962408","long":"130.2202878"}},{"name":"九州大学生協ウエスト5号店","post":"〒819-0395","address":"福岡県福岡市西区元岡744 九大生協ｳｴｽﾄ5号館","tel":"092-834-2810","mapUrl":"https://maps.google.co.jp/maps?q=%e4%b9%9d%e5%b7%9e%e5%a4%a7%e5%ad%a6%e7%94%9f%e5%8d%94%e3%82%a6%e3%82%a8%e3%82%b9%e3%83%885%e5%8f%b7%e5%ba%97","position":{"lat":"33.6103093","long":"130.1794562"}},{"name":"九大生協中央図書館店","post":"〒819-0395","address":"福岡県福岡市西区元岡744 中央図書館3階","tel":"092-707-6532","mapUrl":"https://maps.google.co.jp/maps?q=%e4%b9%9d%e5%a4%a7%e7%94%9f%e5%8d%94%e4%b8%ad%e5%a4%ae%e5%9b%b3%e6%9b%b8%e9%a4%a8%e5%ba%97","position":{"lat":"33.5960957","long":"130.2185286"}},{"name":"久留米工業大学購買部菊竹金文堂","post":"〒830-0052","address":"福岡県久留米市上津町2228-66","tel":"094-222-2123","mapUrl":"https://maps.google.co.jp/maps?q=%e4%b9%85%e7%95%99%e7%b1%b3%e5%b7%a5%e6%a5%ad%e5%a4%a7%e5%ad%a6%e8%b3%bc%e8%b2%b7%e9%83%a8%e8%8f%8a%e7%ab%b9%e9%87%91%e6%96%87%e5%a0%82","position":{"lat":"33.2656049","long":"130.5351463"}},{"name":"紀伊國屋書店久留米店","post":"〒839-0865","address":"福岡県久留米市新合川1-2-1 ゆめﾀｳﾝ久留米2F","tel":"094-245-7170","mapUrl":"https://maps.google.co.jp/maps?q=%e7%b4%80%e4%bc%8a%e5%9c%8b%e5%b1%8b%e6%9b%b8%e5%ba%97%e4%b9%85%e7%95%99%e7%b1%b3%e5%ba%97","position":{"lat":"33.3218803","long":"130.5361161"}},{"name":"紀伊國屋書店佐賀店","post":"〒849-0919","address":"佐賀県佐賀市兵庫町兵庫北5丁目14番1号 ゆめﾀｳﾝ佐賀2F","tel":"095-236-8171","mapUrl":"https://maps.google.co.jp/maps?q=%e7%b4%80%e4%bc%8a%e5%9c%8b%e5%b1%8b%e6%9b%b8%e5%ba%97%e4%bd%90%e8%b3%80%e5%ba%97","position":{"lat":"33.2755585","long":"130.3057167"}},{"name":"紀伊國屋書店長崎店","post":"〒850-0035","address":"長崎県長崎市元船町10-1 夢彩都4F","tel":"095-811-4919","mapUrl":"https://maps.google.co.jp/maps?q=%e7%b4%80%e4%bc%8a%e5%9c%8b%e5%b1%8b%e6%9b%b8%e5%ba%97%e9%95%b7%e5%b4%8e%e5%ba%97","position":{"lat":"32.7463566","long":"129.8677774"}},{"name":"蔦屋書店熊本三年坂","post":"〒860-0801","address":"熊本県熊本市中央区安政町1-2 ｶﾘｰﾉ下通2F","tel":"096-212-9101","mapUrl":"https://maps.google.co.jp/maps?q=%e8%94%a6%e5%b1%8b%e6%9b%b8%e5%ba%97%e7%86%8a%e6%9c%ac%e4%b8%89%e5%b9%b4%e5%9d%82","position":{"lat":"32.80198","long":"130.7075713"}},{"name":"紀伊國屋書店熊本光の森店","post":"〒869-1108","address":"熊本県菊池郡菊陽町光の森7-33-1 ゆめﾀｳﾝ光の森本館2F","tel":"096-233-1700","mapUrl":"https://maps.google.co.jp/maps?q=%e7%b4%80%e4%bc%8a%e5%9c%8b%e5%b1%8b%e6%9b%b8%e5%ba%97%e7%86%8a%e6%9c%ac%e5%85%89%e3%81%ae%e6%a3%ae%e5%ba%97","position":{"lat":"32.8601394","long":"130.7824707"}},{"name":"ジュンク堂書店大分店","post":"〒870-0035","address":"大分県大分市中央町2-3-4 1階~5階","tel":"097-536-8181","mapUrl":"https://maps.google.co.jp/maps?q=%e3%82%b8%e3%83%a5%e3%83%b3%e3%82%af%e5%a0%82%e6%9b%b8%e5%ba%97%e5%a4%a7%e5%88%86%e5%ba%97","position":{"lat":"33.236139","long":"131.6041073"}},{"name":"くまざわ書店大分明野店","post":"〒870-0161","address":"大分県大分市明野東1-1-1 あけのｱｸﾛｽﾀｳﾝ二番街2F","tel":"097-552-7511","mapUrl":"https://maps.google.co.jp/maps?q=%e3%81%8f%e3%81%be%e3%81%96%e3%82%8f%e6%9b%b8%e5%ba%97%e5%a4%a7%e5%88%86%e6%98%8e%e9%87%8e%e5%ba%97","position":{"lat":"33.2231137","long":"131.6511108"}},{"name":"紀伊國屋書店日本文理大学ブックセンター","post":"〒870-0316","address":"大分県大分市一木1727","tel":"097-593-0955","mapUrl":"https://maps.google.co.jp/maps?q=%e7%b4%80%e4%bc%8a%e5%9c%8b%e5%b1%8b%e6%9b%b8%e5%ba%97%e6%97%a5%e6%9c%ac%e6%96%87%e7%90%86%e5%a4%a7%e5%ad%a6%e3%83%96%e3%83%83%e3%82%af%e3%82%bb%e3%83%b3%e3%82%bf%e3%83%bc","position":{"lat":"33.1617333","long":"131.5666088"}},{"name":"未来屋書店宮崎店","post":"〒880-0834","address":"宮崎県宮崎市新別府町江口862-1 ｲｵﾝﾓｰﾙ宮崎 新館2F","tel":"098-577-7507","mapUrl":"https://maps.google.co.jp/maps?q=%e6%9c%aa%e6%9d%a5%e5%b1%8b%e6%9b%b8%e5%ba%97%e5%ae%ae%e5%b4%8e%e5%ba%97","position":{"lat":"31.9227394","long":"131.4528254"}},{"name":"ブックスミスミオプシア","post":"〒890-0073","address":"鹿児島県鹿児島市宇宿2-3-5 ｵﾌﾟｼｱﾐｽﾐ1F","tel":"099-813-7012","mapUrl":"https://maps.google.co.jp/maps?q=%e3%83%96%e3%83%83%e3%82%af%e3%82%b9%e3%83%9f%e3%82%b9%e3%83%9f%e3%82%aa%e3%83%97%e3%82%b7%e3%82%a2","position":{"lat":"31.5438629","long":"130.5426587"}},{"name":"ジュンク堂書店鹿児島店","post":"〒892-0826","address":"鹿児島県鹿児島市呉服町6-5 ﾏﾙﾔｶﾞｰﾃﾞﾝｽﾞ5F･6F","tel":"099-216-8838","mapUrl":"https://maps.google.co.jp/maps?q=%e3%82%b8%e3%83%a5%e3%83%b3%e3%82%af%e5%a0%82%e6%9b%b8%e5%ba%97%e9%b9%bf%e5%85%90%e5%b3%b6%e5%ba%97","position":{"lat":"31.5908513","long":"130.5546651"}},{"name":"ジュンク堂書店那覇店","post":"〒900-0013","address":"沖縄県那覇市牧志1-19-29 Dnaha内","tel":"098-860-7175","mapUrl":"https://maps.google.co.jp/maps?q=%e3%82%b8%e3%83%a5%e3%83%b3%e3%82%af%e5%a0%82%e6%9b%b8%e5%ba%97%e9%82%a3%e8%a6%87%e5%ba%97","position":{"lat":"26.2183958","long":"127.6837104"}},null]